[{
  "description": "Aberdeen, Idaho Weather Station",
  "state": "ID",
  "latitude": "42.953333",
  "longitude": "-112.82667",
  "timezone": "US\/Mountain",
  "install": "3\/20\/1991",
  "horizontal_datum": "",
  "vertical_datum": "m",
  "vertical_accuracy": 0,
  "elevation_method": "agrimet_map",
  "tz_offset": "",
  "active_flag": "",
  "type": "agrimet",
  "responsibility": "noaa",
  "agency_region": "PN",
  "siteid": "abei",
  "elevation": "1341"
}, {
  "description": "INL - Blackfoot, Idaho Weather Station",
  "state": "ID",
  "latitude": "43.18985",
  "longitude": "-112.3332",
  "timezone": "US\/Mountain",
  "install": "",
  "horizontal_datum": "",
  "vertical_datum": "m",
  "vertical_accuracy": 0,
  "elevation_method": "agrimet_map",
  "tz_offset": "",
  "active_flag": "",
  "type": "agrimet",
  "responsibility": "noaa",
  "agency_region": "PN",
  "siteid": "acki",
  "elevation": "1377.696"
}, {
  "description": "Afton, Wyoming AgriMet Weather Station",
  "state": "WY",
  "latitude": "42.73333",
  "longitude": "-110.93583",
  "timezone": "US\/Mountain",
  "install": "11\/1\/1980",
  "horizontal_datum": "",
  "vertical_datum": "m",
  "vertical_accuracy": 0,
  "elevation_method": "agrimet_map",
  "tz_offset": "",
  "active_flag": "",
  "type": "agrimet",
  "responsibility": "pnro",
  "agency_region": "PN",
  "siteid": "afty",
  "elevation": "1892.81"
}, {
  "description": "Snake River above Reservoir near Alpine, WY",
  "state": "WY",
  "latitude": "43.1962707294061",
  "longitude": "-110.88956823763",
  "timezone": "US\/Mountain",
  "install": "01-JUL-1980 12:00:00.00",
  "horizontal_datum": "13022500",
  "vertical_datum": "ft",
  "vertical_accuracy": 0,
  "elevation_method": "Bill_KML",
  "tz_offset": "",
  "active_flag": "",
  "type": "stream",
  "responsibility": "usgs\/pnro",
  "agency_region": "PN",
  "siteid": "alpy",
  "elevation": "5684"
}, {
  "description": "American Falls Reservoir at American Falls, ID",
  "state": "ID",
  "latitude": "42.77916",
  "longitude": "-112.87917",
  "timezone": "US\/Mountain",
  "install": "01-AUG-1982 12:00:00.00",
  "horizontal_datum": "",
  "vertical_datum": "ft",
  "vertical_accuracy": 0,
  "elevation_method": "cma_google",
  "tz_offset": "",
  "active_flag": "",
  "type": "reservoir",
  "responsibility": "pnro",
  "agency_region": "PN",
  "siteid": "amf",
  "elevation": "4370"
}, {
  "description": "Snake River at Neeley, ID",
  "state": "ID",
  "latitude": "42.7675180027447",
  "longitude": "-112.879473994251",
  "timezone": "US\/Mountain",
  "install": ".......................",
  "horizontal_datum": "13077000",
  "vertical_datum": "ft",
  "vertical_accuracy": 0,
  "elevation_method": "Bill_KML",
  "tz_offset": "",
  "active_flag": "",
  "type": "stream",
  "responsibility": "usgs\/pnro",
  "agency_region": "PN",
  "siteid": "amfi",
  "elevation": "4242"
}, {
  "description": "BUFFALO BILL RESERVOIR ON SHOSHONE RIVER, WYOMING",
  "state": "WY",
  "latitude": "44.50139",
  "longitude": "-109.18333",
  "timezone": "",
  "install": "2\/10\/1989",
  "horizontal_datum": "",
  "vertical_datum": "",
  "vertical_accuracy": 0,
  "elevation_method": "",
  "tz_offset": "",
  "active_flag": "T",
  "type": "reservoir",
  "responsibility": "WYAO",
  "agency_region": "GP",
  "siteid": "bbr",
  "elevation": "5360"
}, {
  "description": "Snake River near Blackfoot, ID",
  "state": "ID",
  "latitude": "43.1251384550335",
  "longitude": "-112.518791976205",
  "timezone": "US\/Mountain",
  "install": "01-DEC-1980 12:00:00.00",
  "horizontal_datum": "13069500",
  "vertical_datum": "ft",
  "vertical_accuracy": 0,
  "elevation_method": "Bill_KML",
  "tz_offset": "",
  "active_flag": "",
  "type": "stream",
  "responsibility": "usgs\/pnro",
  "agency_region": "PN",
  "siteid": "bfti",
  "elevation": "4400"
}, {
  "description": "Snake River near Flagg Ranch, WY",
  "state": "WY",
  "latitude": "44.0991451829754",
  "longitude": "-110.667458041053",
  "timezone": "US\/Mountain",
  "install": "01-JUN-1984 12:00:00.00",
  "horizontal_datum": "13010065",
  "vertical_datum": "ft",
  "vertical_accuracy": 0,
  "elevation_method": "Bill_KML",
  "tz_offset": "",
  "active_flag": "",
  "type": "stream",
  "responsibility": "usgs\/pnro",
  "agency_region": "PN",
  "siteid": "flgy",
  "elevation": "0"
}, {
  "description": "GLENDO RESERVOIR, WYOMING",
  "state": "WY",
  "latitude": "42.47722",
  "longitude": "-104.95055",
  "timezone": "",
  "install": "10\/12\/2007",
  "horizontal_datum": "",
  "vertical_datum": "",
  "vertical_accuracy": 0,
  "elevation_method": "",
  "tz_offset": "",
  "active_flag": "T",
  "type": "reservoir",
  "responsibility": "WYAO",
  "agency_region": "GP",
  "siteid": "gler",
  "elevation": "4520"
}, {
  "description": "Greys River above Reservoir near Alpine, WY",
  "state": "WY",
  "latitude": "43.1429655204963",
  "longitude": "-110.976750605595",
  "timezone": "US\/Mountain",
  "install": "01-JUL-1980 12:00:00.00",
  "horizontal_datum": "13023000",
  "vertical_datum": "ft",
  "vertical_accuracy": 0,
  "elevation_method": "Bill_KML",
  "tz_offset": "",
  "active_flag": "",
  "type": "stream",
  "responsibility": "usgs\/pnro",
  "agency_region": "PN",
  "siteid": "grey",
  "elevation": "5720"
}, {
  "description": "Grassy Lake near Moran, WY",
  "state": "WY",
  "latitude": "44.1296590931",
  "longitude": "-110.819388776",
  "timezone": "US\/Mountain",
  "install": "01-OCT-1982 12:00:00.00",
  "horizontal_datum": "",
  "vertical_datum": "ft",
  "vertical_accuracy": 0,
  "elevation_method": "cma_google",
  "tz_offset": "",
  "active_flag": "",
  "type": "reservoir",
  "responsibility": "pnro",
  "agency_region": "PN",
  "siteid": "grs",
  "elevation": "7135"
}, {
  "description": "Snake River near Heise, ID",
  "state": "ID",
  "latitude": "43.6123985325706",
  "longitude": "-111.659884444473",
  "timezone": "US\/Mountain",
  "install": "01-DEC-1980 12:00:00.00",
  "horizontal_datum": "13037500",
  "vertical_datum": "ft",
  "vertical_accuracy": 0,
  "elevation_method": "Bill_KML",
  "tz_offset": "",
  "active_flag": "",
  "type": "stream",
  "responsibility": "usgs\/pnro",
  "agency_region": "PN",
  "siteid": "heii",
  "elevation": "5015"
}, {
  "description": "Henrys Lake Dam on Henrys Fork nr. Lake, ID",
  "state": "ID",
  "latitude": "44.597222",
  "longitude": "-111.353611",
  "timezone": "US\/Mountain",
  "install": "01-NOV-1980 12:00:00.00",
  "horizontal_datum": "",
  "vertical_datum": "ft",
  "vertical_accuracy": 0,
  "elevation_method": "cma_google",
  "tz_offset": "",
  "active_flag": "",
  "type": "reservoir",
  "responsibility": "pnro",
  "agency_region": "PN",
  "siteid": "hen",
  "elevation": "6457"
}, {
  "description": "Henrys Fork near Lake, ID",
  "state": "ID",
  "latitude": "44.5952127940803",
  "longitude": "-111.349599507558",
  "timezone": "US\/Mountain",
  "install": "01-NOV-1980 12:00:00.00",
  "horizontal_datum": "13039500",
  "vertical_datum": "ft",
  "vertical_accuracy": 0,
  "elevation_method": "Bill_KML",
  "tz_offset": "",
  "active_flag": "",
  "type": "stream",
  "responsibility": "usgs\/pnro",
  "agency_region": "PN",
  "siteid": "heni",
  "elevation": "6451"
}, {
  "description": "NORTH PLATTE RIVER AT WYOMING-NEBRASKA STATE LINE",
  "state": "WY",
  "latitude": "41.99028",
  "longitude": "-104.04916",
  "timezone": "",
  "install": "1\/1\/1990",
  "horizontal_datum": "",
  "vertical_datum": "",
  "vertical_accuracy": 0,
  "elevation_method": "",
  "tz_offset": "",
  "active_flag": "T",
  "type": "stream",
  "responsibility": "BCANNON",
  "agency_region": "GP",
  "siteid": "hewy",
  "elevation": "4021"
}, {
  "description": "Island Park Dam and Reservoir, ID",
  "state": "ID",
  "latitude": "44.4189315428",
  "longitude": "-111.398427603",
  "timezone": "US\/Mountain",
  "install": "01-NOV-1980 12:00:00.00",
  "horizontal_datum": "",
  "vertical_datum": "ft",
  "vertical_accuracy": 0,
  "elevation_method": "cma_google",
  "tz_offset": "",
  "active_flag": "",
  "type": "reservoir",
  "responsibility": "pnro",
  "agency_region": "PN",
  "siteid": "isl",
  "elevation": "6302"
}, {
  "description": "Henrys Fork near Island Park, ID",
  "state": "ID",
  "latitude": "44.41639",
  "longitude": "-111.39472",
  "timezone": "US\/Mountain",
  "install": "01-NOV-1980 12:00:00.00",
  "horizontal_datum": "13042500",
  "vertical_datum": "ft",
  "vertical_accuracy": 0,
  "elevation_method": "Bill_KML",
  "tz_offset": "",
  "active_flag": "",
  "type": "stream",
  "responsibility": "usgs\/pnro",
  "agency_region": "PN",
  "siteid": "isli",
  "elevation": "6225"
}, {
  "description": "Jackson Lake at Dam on Snake River near Moran, WY",
  "state": "WY",
  "latitude": "43.8575325",
  "longitude": "-110.5897446",
  "timezone": "US\/Mountain",
  "install": "01-SEP-1980 12:00:00.00",
  "horizontal_datum": "13011000",
  "vertical_datum": "ft",
  "vertical_accuracy": 0,
  "elevation_method": "cma_google",
  "tz_offset": "",
  "active_flag": "",
  "type": "reservoir",
  "responsibility": "usgs\/pnro",
  "agency_region": "PN",
  "siteid": "jck",
  "elevation": "6789"
}, {
  "description": "Snake River below Flat Creek near Jackson, WY",
  "state": "WY",
  "latitude": "43.372074728326",
  "longitude": "-110.738671911625",
  "timezone": "US\/Mountain",
  "install": "01-DEC-1980 12:00:00.00",
  "horizontal_datum": "13018750",
  "vertical_datum": "ft",
  "vertical_accuracy": 0,
  "elevation_method": "Bill_KML",
  "tz_offset": "",
  "active_flag": "",
  "type": "stream",
  "responsibility": "usgs\/pnro",
  "agency_region": "PN",
  "siteid": "jksy",
  "elevation": "5950"
}, {
  "description": "Snake River at Lorenzo, ID",
  "state": "ID",
  "latitude": "43.7353607417867",
  "longitude": "-111.878101336098",
  "timezone": "US\/Mountain",
  "install": "01-DEC-1980 12:00:00.00",
  "horizontal_datum": "13038500",
  "vertical_datum": "ft",
  "vertical_accuracy": 0,
  "elevation_method": "Bill_KML",
  "tz_offset": "",
  "active_flag": "",
  "type": "stream",
  "responsibility": "usgs\/pnro",
  "agency_region": "PN",
  "siteid": "lori",
  "elevation": "4856"
}, {
  "description": "Little Wood River above High Five Creek, ID",
  "state": "ID",
  "latitude": "43.49306",
  "longitude": "-114.05723",
  "timezone": "US\/Mountain",
  "install": "01-OCT-1983 12:00:00.00",
  "horizontal_datum": "13147900",
  "vertical_datum": "ft",
  "vertical_accuracy": 0,
  "elevation_method": "Bill_KML",
  "tz_offset": "",
  "active_flag": "",
  "type": "stream",
  "responsibility": "usgs\/pnro",
  "agency_region": "PN",
  "siteid": "lwoi",
  "elevation": "5320"
}, {
  "description": "Milner Dam and Reservoir, Idaho",
  "state": "ID",
  "latitude": "42.5238940739",
  "longitude": "-114.037603928",
  "timezone": "US\/Mountain",
  "install": "01-NOV-1980 12:00:00.00",
  "horizontal_datum": "",
  "vertical_datum": "ft",
  "vertical_accuracy": 0,
  "elevation_method": "cma_google",
  "tz_offset": "",
  "active_flag": "",
  "type": "reservoir",
  "responsibility": "pnro",
  "agency_region": "PN",
  "siteid": "mil",
  "elevation": "4123"
}, {
  "description": "Snake River at Milner, Idaho",
  "state": "ID",
  "latitude": "42.5281458943181",
  "longitude": "-114.018384693968",
  "timezone": "US\/Mountain",
  "install": "01-AUG-1980 12:00:00.00",
  "horizontal_datum": "13087995",
  "vertical_datum": "ft",
  "vertical_accuracy": 0,
  "elevation_method": "Bill_KML",
  "tz_offset": "",
  "active_flag": "",
  "type": "stream",
  "responsibility": "usgs\/pnro",
  "agency_region": "PN",
  "siteid": "mili",
  "elevation": "4063"
}, {
  "description": "Minidoka Dam and Lake Walcott, ID",
  "state": "ID",
  "latitude": "42.67083",
  "longitude": "-113.48333",
  "timezone": "US\/Mountain",
  "install": "01-MAY-1982 12:00:00.00",
  "horizontal_datum": "",
  "vertical_datum": "ft",
  "vertical_accuracy": 0,
  "elevation_method": "cma_google",
  "tz_offset": "",
  "active_flag": "",
  "type": "reservoir",
  "responsibility": "pnro",
  "agency_region": "PN",
  "siteid": "min",
  "elevation": "4200"
}, {
  "description": "Snake River near Minidoka, ID",
  "state": "ID",
  "latitude": "42.6728975280516",
  "longitude": "-113.50033664752",
  "timezone": "US\/Mountain",
  "install": "01-APR-1982 12:00:00.00",
  "horizontal_datum": "13081500",
  "vertical_datum": "ft",
  "vertical_accuracy": 0,
  "elevation_method": "Bill_KML",
  "tz_offset": "",
  "active_flag": "",
  "type": "stream",
  "responsibility": "usgs\/pnro",
  "agency_region": "PN",
  "siteid": "mini",
  "elevation": "4132"
}, {
  "description": "Palisades Reservoir near Irwin, ID",
  "state": "ID",
  "latitude": "43.3381653",
  "longitude": "-111.2063599",
  "timezone": "US\/Mountain",
  "install": "01-NOV-1980 12:00:00.00",
  "horizontal_datum": "",
  "vertical_datum": "ft",
  "vertical_accuracy": 0,
  "elevation_method": "cma_google",
  "tz_offset": "",
  "active_flag": "",
  "type": "reservoir",
  "responsibility": "pnro",
  "agency_region": "PN",
  "siteid": "pal",
  "elevation": "5353"
}, {
  "description": "Snake River near Irwin, ID",
  "state": "ID",
  "latitude": "43.3508997442461",
  "longitude": "-111.21888171376",
  "timezone": "US\/Mountain",
  "install": "01-NOV-1980 12:00:00.00",
  "horizontal_datum": "13032500",
  "vertical_datum": "ft",
  "vertical_accuracy": 0,
  "elevation_method": "Bill_KML",
  "tz_offset": "",
  "active_flag": "",
  "type": "stream",
  "responsibility": "usgs\/pnro",
  "agency_region": "PN",
  "siteid": "pali",
  "elevation": "5353"
}, {
  "description": "PUEBLO RESERVOIR,ARKANSAS RIVER NR PUEBLO, COLORADO",
  "state": "CO",
  "latitude": "38.25972",
  "longitude": "-104.71806",
  "timezone": "",
  "install": "7\/24\/2007",
  "horizontal_datum": "",
  "vertical_datum": "",
  "vertical_accuracy": 0,
  "elevation_method": "",
  "tz_offset": "",
  "active_flag": "T",
  "type": "reservoir",
  "responsibility": "ECAO",
  "agency_region": "GP",
  "siteid": "puer",
  "elevation": "4850"
}, {
  "description": "Henrys Fork near Rexburg, ID",
  "state": "ID",
  "latitude": "43.8258701508665",
  "longitude": "-111.905030770562",
  "timezone": "US\/Mountain",
  "install": "01-DEC-1980 12:00:00.00",
  "horizontal_datum": "13056500",
  "vertical_datum": "ft",
  "vertical_accuracy": 0,
  "elevation_method": "Bill_KML",
  "tz_offset": "",
  "active_flag": "",
  "type": "stream",
  "responsibility": "usgs\/pnro",
  "agency_region": "PN",
  "siteid": "rexi",
  "elevation": "4806"
}, {
  "description": "Ririe Dam and Lake near Ririe, ID",
  "state": "ID",
  "latitude": "43.5821394015",
  "longitude": "-111.74284112",
  "timezone": "US\/Mountain",
  "install": "01-AUG-1980 12:00:00.00",
  "horizontal_datum": "",
  "vertical_datum": "ft",
  "vertical_accuracy": 0,
  "elevation_method": "cma_google",
  "tz_offset": "",
  "active_flag": "",
  "type": "reservoir",
  "responsibility": "pnro",
  "agency_region": "PN",
  "siteid": "rir",
  "elevation": "5119"
}, {
  "description": "Willow Creek below Ririe Dam (comp from RIR)",
  "state": "ID",
  "latitude": "43.5821394015",
  "longitude": "-111.74284112",
  "timezone": "US\/Mountain",
  "install": ".......................",
  "horizontal_datum": "0",
  "vertical_datum": "ft",
  "vertical_accuracy": 0,
  "elevation_method": "",
  "tz_offset": "",
  "active_flag": "",
  "type": "stream",
  "responsibility": "pnro",
  "agency_region": "PN",
  "siteid": "riri",
  "elevation": "5119"
}, {
  "description": "Salt River above Reservoir near Etna, WY",
  "state": "WY",
  "latitude": "43.0796352061523",
  "longitude": "-111.037346417455",
  "timezone": "US\/Mountain",
  "install": "01-AUG-1980 12:00:00.00",
  "horizontal_datum": "13027500",
  "vertical_datum": "ft",
  "vertical_accuracy": 0,
  "elevation_method": "Bill_KML",
  "tz_offset": "",
  "active_flag": "",
  "type": "stream",
  "responsibility": "usgs\/pnro",
  "agency_region": "PN",
  "siteid": "saly",
  "elevation": "5676"
}, {
  "description": "Snake River near Shelley, ID",
  "state": "ID",
  "latitude": "43.4130555555555",
  "longitude": "-112.135",
  "timezone": "US\/Mountain",
  "install": "01-MAR-1981 12:00:00.00",
  "horizontal_datum": "13060000",
  "vertical_datum": "ft",
  "vertical_accuracy": 0,
  "elevation_method": "Bill_KML",
  "tz_offset": "",
  "active_flag": "",
  "type": "stream",
  "responsibility": "usgs\/pnro",
  "agency_region": "PN",
  "siteid": "shyi",
  "elevation": "4599"
}, {
  "description": "Snake River near Idaho Falls, ID",
  "state": "ID",
  "latitude": "43.604722",
  "longitude": "-112.058611",
  "timezone": "US\/Mountain",
  "install": "01-AUG-1984 12:00:00.00",
  "horizontal_datum": "13057155",
  "vertical_datum": "ft",
  "vertical_accuracy": 0,
  "elevation_method": "",
  "tz_offset": "",
  "active_flag": "",
  "type": "stream",
  "responsibility": "usgs",
  "agency_region": "PN",
  "siteid": "sifi",
  "elevation": "4740"
}, {
  "description": "Snake River at Blackfoot, ID",
  "state": "ID",
  "latitude": "43.19730610727",
  "longitude": "-112.369302100176",
  "timezone": "US\/Mountain",
  "install": "01-MAY-1982 12:00:00.00",
  "horizontal_datum": "13062500",
  "vertical_datum": "ft",
  "vertical_accuracy": 0,
  "elevation_method": "Bill_KML",
  "tz_offset": "",
  "active_flag": "",
  "type": "stream",
  "responsibility": "usgs\/pnro",
  "agency_region": "PN",
  "siteid": "snai",
  "elevation": "4490"
}, {
  "description": "Teton River near St. Anthony, ID",
  "state": "ID",
  "latitude": "43.9270485926148",
  "longitude": "-111.613803045965",
  "timezone": "US\/Mountain",
  "install": "01-NOV-1980 12:00:00.00",
  "horizontal_datum": "13055000",
  "vertical_datum": "ft",
  "vertical_accuracy": 0,
  "elevation_method": "Bill_KML",
  "tz_offset": "",
  "active_flag": "",
  "type": "stream",
  "responsibility": "usgs\/pnro",
  "agency_region": "PN",
  "siteid": "teai",
  "elevation": "4972"
}, {
  "description": "TURQUOISE LAKE (SUGARLOAF DAM), COLORADO",
  "state": "CO",
  "latitude": "39.25278",
  "longitude": "-106.37417",
  "timezone": "",
  "install": "2\/7\/2006",
  "horizontal_datum": "",
  "vertical_datum": "",
  "vertical_accuracy": 0,
  "elevation_method": "",
  "tz_offset": "",
  "active_flag": "T",
  "type": "reservoir",
  "responsibility": "ECAO",
  "agency_region": "GP",
  "siteid": "turq",
  "elevation": "9750"
}, {
  "description": "TWIN LAKES RESERVOIR, COLORADO",
  "state": "CO",
  "latitude": "39.08028",
  "longitude": "-106.31389",
  "timezone": "",
  "install": "6\/19\/2008",
  "horizontal_datum": "",
  "vertical_datum": "",
  "vertical_accuracy": 0,
  "elevation_method": "",
  "tz_offset": "",
  "active_flag": "T",
  "type": "reservoir",
  "responsibility": "ECAO",
  "agency_region": "GP",
  "siteid": "twiresco",
  "elevation": "9200"
}, {
  "description": "Little Wood Dam and Reservoir near Carey, ID",
  "state": "ID",
  "latitude": "43.42528",
  "longitude": "-114.02723",
  "timezone": "US\/Mountain",
  "install": "01-NOV-1982 12:00:00.00",
  "horizontal_datum": "",
  "vertical_datum": "ft",
  "vertical_accuracy": 0,
  "elevation_method": "cma_google",
  "tz_offset": "",
  "active_flag": "",
  "type": "reservoir",
  "responsibility": "pnro",
  "agency_region": "PN",
  "siteid": "wod",
  "elevation": "5100"
}, {
  "description": "Little Wood River near Carey, ID",
  "state": "ID",
  "latitude": "43.3899574069921",
  "longitude": "-113.999677851083",
  "timezone": "US\/Mountain",
  "install": "01-NOV-1980 12:00:00.00",
  "horizontal_datum": "13148500",
  "vertical_datum": "ft",
  "vertical_accuracy": 0,
  "elevation_method": "Bill_KML",
  "tz_offset": "",
  "active_flag": "",
  "type": "stream",
  "responsibility": "usgs\/pnro",
  "agency_region": "PN",
  "siteid": "wodi",
  "elevation": "4991"
}, {
  "description": "Agency Lake Ranch, Oregon AgriMet Weather Station",
  "state": "OR",
  "latitude": "42.56527",
  "longitude": "-121.9825",
  "timezone": "US\/Pacific",
  "install": "5\/3\/2000",
  "horizontal_datum": "",
  "vertical_datum": "m",
  "vertical_accuracy": 0,
  "elevation_method": "agrimet_map",
  "tz_offset": "",
  "active_flag": "",
  "type": "agrimet",
  "responsibility": "pnro",
  "agency_region": "PN",
  "siteid": "agko",
  "elevation": "1264.92"
}, {
  "description": "Ashton, Idaho AgriMet Weather Station",
  "state": "ID",
  "latitude": "44.025",
  "longitude": "-111.46666",
  "timezone": "US\/Mountain",
  "install": "6\/1\/1987",
  "horizontal_datum": "",
  "vertical_datum": "m",
  "vertical_accuracy": 0,
  "elevation_method": "agrimet_map",
  "tz_offset": "",
  "active_flag": "",
  "type": "agrimet",
  "responsibility": "pnro",
  "agency_region": "PN",
  "siteid": "ahti",
  "elevation": "1615.44"
}, {
  "description": "DRI - Antelope Valley, Nevada Weather Station",
  "state": "NV",
  "latitude": "40.093889",
  "longitude": "-117.168889",
  "timezone": "US\/Pacific",
  "install": "6\/11\/2011",
  "horizontal_datum": "",
  "vertical_datum": "m",
  "vertical_accuracy": 0,
  "elevation_method": "agrimet_map",
  "tz_offset": "",
  "active_flag": "",
  "type": "agrimet",
  "responsibility": "dri",
  "agency_region": "PN",
  "siteid": "anvn",
  "elevation": "1484.6808"
}, {
  "description": "Aurora, Oregon AgriMet Weather Station",
  "state": "OR",
  "latitude": "45.28194",
  "longitude": "-122.75027",
  "timezone": "US\/Pacific",
  "install": "10\/22\/1998",
  "horizontal_datum": "",
  "vertical_datum": "m",
  "vertical_accuracy": 0,
  "elevation_method": "agrimet_map",
  "tz_offset": "",
  "active_flag": "",
  "type": "agrimet",
  "responsibility": "pnro",
  "agency_region": "PN",
  "siteid": "arao",
  "elevation": "42.67"
}, {
  "description": "Bandon, Oregon AgriMet Weather Station",
  "state": "OR",
  "latitude": "43.09111",
  "longitude": "-124.41722",
  "timezone": "US\/Pacific",
  "install": "5\/1\/1985",
  "horizontal_datum": "",
  "vertical_datum": "m",
  "vertical_accuracy": 0,
  "elevation_method": "agrimet_map",
  "tz_offset": "",
  "active_flag": "",
  "type": "agrimet",
  "responsibility": "pnro",
  "agency_region": "PN",
  "siteid": "bano",
  "elevation": "24.38"
}, {
  "description": "Beatty, Oregon AgriMet Weather Station",
  "state": "OR",
  "latitude": "42.47805",
  "longitude": "-121.27388",
  "timezone": "US\/Pacific",
  "install": "10\/19\/2004",
  "horizontal_datum": "",
  "vertical_datum": "m",
  "vertical_accuracy": 0,
  "elevation_method": "agrimet_map",
  "tz_offset": "",
  "active_flag": "",
  "type": "agrimet",
  "responsibility": "pnro",
  "agency_region": "PN",
  "siteid": "bato",
  "elevation": "1316.74"
}, {
  "description": "Bend, Oregon AgriMet Weather Station",
  "state": "OR",
  "latitude": "44.0475",
  "longitude": "-121.32027",
  "timezone": "US\/Pacific",
  "install": "5\/1\/2003",
  "horizontal_datum": "",
  "vertical_datum": "m",
  "vertical_accuracy": 0,
  "elevation_method": "agrimet_map",
  "tz_offset": "",
  "active_flag": "",
  "type": "agrimet",
  "responsibility": "pnro",
  "agency_region": "PN",
  "siteid": "bewo",
  "elevation": "1103.38"
}, {
  "description": "Boise Fairgrounds Weather Station",
  "state": "ID",
  "latitude": "43.65303",
  "longitude": "-116.27417",
  "timezone": "US\/Mountain",
  "install": "8\/15\/2013",
  "horizontal_datum": "",
  "vertical_datum": "m",
  "vertical_accuracy": 0,
  "elevation_method": "agrimet_map",
  "tz_offset": "",
  "active_flag": "",
  "type": "agrimet",
  "responsibility": "pnro",
  "agency_region": "PN",
  "siteid": "bfgi",
  "elevation": "800"
}, {
  "description": "Baker Valley, Oregon Agrimet Weather Station",
  "state": "OR",
  "latitude": "44.88277",
  "longitude": "-117.96277",
  "timezone": "US\/Pacific",
  "install": "4\/1\/2001",
  "horizontal_datum": "",
  "vertical_datum": "m",
  "vertical_accuracy": 0,
  "elevation_method": "agrimet_map",
  "tz_offset": "",
  "active_flag": "",
  "type": "agrimet",
  "responsibility": "pnro",
  "agency_region": "PN",
  "siteid": "bkvo",
  "elevation": "1042.42"
}, {
  "description": "UCC - Blue Creek, Utah Weather Station",
  "state": "UT",
  "latitude": "41.962167",
  "longitude": "-112.491167",
  "timezone": "US\/Mountain",
  "install": "",
  "horizontal_datum": "",
  "vertical_datum": "m",
  "vertical_accuracy": 0,
  "elevation_method": "agrimet_map",
  "tz_offset": "",
  "active_flag": "",
  "type": "agrimet",
  "responsibility": "ucc",
  "agency_region": "PN",
  "siteid": "blcu",
  "elevation": "1575.816"
}, {
  "description": "UCC - BearLake, Utah Weather Station",
  "state": "UT",
  "latitude": "41.933628",
  "longitude": "-111.420137",
  "timezone": "US\/Mountain",
  "install": "",
  "horizontal_datum": "",
  "vertical_datum": "ft",
  "vertical_accuracy": 0,
  "elevation_method": "",
  "tz_offset": "",
  "active_flag": "",
  "type": "agrimet",
  "responsibility": "ucc",
  "agency_region": "PN",
  "siteid": "blou",
  "elevation": "1979.9808"
}, {
  "description": "Bonneville Dam AgriMet, Washington AgriMet Weather Station",
  "state": "WA",
  "latitude": "45.64777",
  "longitude": "-121.93111",
  "timezone": "US\/Pacific",
  "install": "4\/13\/2002",
  "horizontal_datum": "",
  "vertical_datum": "m",
  "vertical_accuracy": 0,
  "elevation_method": "agrimet_map",
  "tz_offset": "",
  "active_flag": "",
  "type": "agrimet",
  "responsibility": "pnro",
  "agency_region": "PN",
  "siteid": "bndw",
  "elevation": "24.38"
}, {
  "description": "Boise, Idaho AgriMet Weather Station",
  "state": "ID",
  "latitude": "43.60027",
  "longitude": "-116.17694",
  "timezone": "US\/Mountain",
  "install": "7\/26\/1995",
  "horizontal_datum": "",
  "vertical_datum": "m",
  "vertical_accuracy": 0,
  "elevation_method": "agrimet_map",
  "tz_offset": "",
  "active_flag": "",
  "type": "agrimet",
  "responsibility": "pnro",
  "agency_region": "PN",
  "siteid": "boii",
  "elevation": "829.06"
}, {
  "description": "UCC - Beryl Junction, Utah Weather Station",
  "state": "UT",
  "latitude": "37.7196",
  "longitude": "-113.702016666667",
  "timezone": "US\/Mountain",
  "install": "",
  "horizontal_datum": "",
  "vertical_datum": "ft",
  "vertical_accuracy": 0,
  "elevation_method": "",
  "tz_offset": "",
  "active_flag": "",
  "type": "agrimet",
  "responsibility": "ucc",
  "agency_region": "PN",
  "siteid": "brju",
  "elevation": "1580.9976"
}, {
  "description": "Brookings, Oregon AgriMet Weather Station",
  "state": "OR",
  "latitude": "42.03",
  "longitude": "-124.24083",
  "timezone": "US\/Pacific",
  "install": "9\/27\/1999",
  "horizontal_datum": "",
  "vertical_datum": "m",
  "vertical_accuracy": 0,
  "elevation_method": "agrimet_map",
  "tz_offset": "",
  "active_flag": "",
  "type": "agrimet",
  "responsibility": "pnro",
  "agency_region": "PN",
  "siteid": "brko",
  "elevation": "24.38"
}, {
  "description": "UCC - Buckhorn, Utah Weather Station",
  "state": "UT",
  "latitude": "38.0399",
  "longitude": "-112.711483",
  "timezone": "US\/Mountain",
  "install": "",
  "horizontal_datum": "",
  "vertical_datum": "m",
  "vertical_accuracy": 0,
  "elevation_method": "agrimet_map",
  "tz_offset": "",
  "active_flag": "",
  "type": "agrimet",
  "responsibility": "ucc",
  "agency_region": "PN",
  "siteid": "bucu",
  "elevation": "1773.936"
}, {
  "description": "DRI - Bridgeport Valley, Nevada Weather Station",
  "state": "NV",
  "latitude": "38.223056",
  "longitude": "-119.252222",
  "timezone": "US\/Pacific",
  "install": "7\/12\/2012",
  "horizontal_datum": "",
  "vertical_datum": "m",
  "vertical_accuracy": 0,
  "elevation_method": "agrimet_map",
  "tz_offset": "",
  "active_flag": "",
  "type": "agrimet",
  "responsibility": "dri",
  "agency_region": "PN",
  "siteid": "bvpc",
  "elevation": "1979.676"
}, {
  "description": "Coeur d'Alene Fairgrounds, Idaho Weather Station",
  "state": "ID",
  "latitude": "47.71797",
  "longitude": "-116.78418",
  "timezone": "US\/Pacific",
  "install": "",
  "horizontal_datum": "",
  "vertical_datum": "m",
  "vertical_accuracy": 0,
  "elevation_method": "agrimet_map",
  "tz_offset": "",
  "active_flag": "",
  "type": "agrimet",
  "responsibility": "pnro",
  "agency_region": "PN",
  "siteid": "cdai",
  "elevation": "620"
}, {
  "description": "Cedarville, California AgriMet Weather Station",
  "state": "CA",
  "latitude": "41.58527",
  "longitude": "-120.17138",
  "timezone": "US\/Pacific",
  "install": "4\/1\/1985",
  "horizontal_datum": "",
  "vertical_datum": "m",
  "vertical_accuracy": 0,
  "elevation_method": "agrimet_map",
  "tz_offset": "",
  "active_flag": "",
  "type": "agrimet",
  "responsibility": "pnro",
  "agency_region": "PN",
  "siteid": "cedc",
  "elevation": "1402.08"
}, {
  "description": "UCC - Cedar City, Utah Weather Station",
  "state": "UT",
  "latitude": "37.6729666666667",
  "longitude": "-113.137166666667",
  "timezone": "US\/Mountain",
  "install": "",
  "horizontal_datum": "",
  "vertical_datum": "m",
  "vertical_accuracy": 0,
  "elevation_method": "agrimet_map",
  "tz_offset": "",
  "active_flag": "",
  "type": "agrimet",
  "responsibility": "ucc",
  "agency_region": "PN",
  "siteid": "cedu",
  "elevation": "1685.2392"
}, {
  "description": "Chamokane, Washington AgriMet Weather Station",
  "state": "WA",
  "latitude": "48.03138",
  "longitude": "-117.73916",
  "timezone": "US\/Pacific",
  "install": "11\/27\/2007",
  "horizontal_datum": "",
  "vertical_datum": "m",
  "vertical_accuracy": 0,
  "elevation_method": "agrimet_map",
  "tz_offset": "",
  "active_flag": "",
  "type": "agrimet",
  "responsibility": "pnro",
  "agency_region": "PN",
  "siteid": "chaw",
  "elevation": "594.36"
}, {
  "description": "Christmas Valley, Oregon AgriMet Weather Station",
  "state": "OR",
  "latitude": "43.24138",
  "longitude": "-120.72805",
  "timezone": "US\/Pacific",
  "install": "4\/1\/1985",
  "horizontal_datum": "",
  "vertical_datum": "m",
  "vertical_accuracy": 0,
  "elevation_method": "agrimet_map",
  "tz_offset": "",
  "active_flag": "",
  "type": "agrimet",
  "responsibility": "pnro",
  "agency_region": "PN",
  "siteid": "chvo",
  "elevation": "1312.16"
}, {
  "description": "Chief Joseph Dam, Washington AgriMet Weather Station",
  "state": "WA",
  "latitude": "47.99083",
  "longitude": "-119.63555",
  "timezone": "US\/Pacific",
  "install": "4\/15\/2002",
  "horizontal_datum": "",
  "vertical_datum": "m",
  "vertical_accuracy": 0,
  "elevation_method": "agrimet_map",
  "tz_offset": "",
  "active_flag": "",
  "type": "agrimet",
  "responsibility": "pnro",
  "agency_region": "PN",
  "siteid": "cjdw",
  "elevation": "301.75"
}, {
  "description": "Cokeville, Wyoming AgriMet Weather Station",
  "state": "ID",
  "latitude": "42.077831",
  "longitude": "-110.956110",
  "timezone": "US\/Mountain",
  "install": "3\/9\/2015",
  "horizontal_datum": "",
  "vertical_datum": "m",
  "vertical_accuracy": 0,
  "elevation_method": "agrimet_map",
  "tz_offset": "",
  "active_flag": "",
  "type": "agrimet",
  "responsibility": "pnro",
  "agency_region": "PN",
  "siteid": "ckvy",
  "elevation": "1887"
}, {
  "description": "Corvallis, Montana AgriMet Weather Station",
  "state": "MT",
  "latitude": "46.33333",
  "longitude": "-114.08333",
  "timezone": "US\/Mountain",
  "install": "4\/1\/1984",
  "horizontal_datum": "",
  "vertical_datum": "m",
  "vertical_accuracy": 0,
  "elevation_method": "agrimet_map",
  "tz_offset": "",
  "active_flag": "",
  "type": "agrimet",
  "responsibility": "pnro",
  "agency_region": "PN",
  "siteid": "covm",
  "elevation": "1096.37"
}, {
  "description": "UCC - Corinne, Utah Weather Station",
  "state": "UT",
  "latitude": "41.51915",
  "longitude": "-112.17395",
  "timezone": "US\/Mountain",
  "install": "",
  "horizontal_datum": "",
  "vertical_datum": "m",
  "vertical_accuracy": 0,
  "elevation_method": "agrimet_map",
  "tz_offset": "",
  "active_flag": "",
  "type": "agrimet",
  "responsibility": "ucc",
  "agency_region": "PN",
  "siteid": "crnu",
  "elevation": "1291.7424"
}, {
  "description": "Creston, Montana AgriMet Weather Station",
  "state": "MT",
  "latitude": "48.1875",
  "longitude": "-114.12777",
  "timezone": "US\/Mountain",
  "install": "4\/1\/1988",
  "horizontal_datum": "",
  "vertical_datum": "m",
  "vertical_accuracy": 0,
  "elevation_method": "agrimet_map",
  "tz_offset": "",
  "active_flag": "",
  "type": "agrimet",
  "responsibility": "pnro",
  "agency_region": "PN",
  "siteid": "crsm",
  "elevation": "899.16"
}, {
  "description": "Corvallis, Oregon AgriMet Weather Station",
  "state": "OR",
  "latitude": "44.63416",
  "longitude": "-123.19",
  "timezone": "US\/Pacific",
  "install": "2\/1\/1990",
  "horizontal_datum": "",
  "vertical_datum": "m",
  "vertical_accuracy": 0,
  "elevation_method": "agrimet_map",
  "tz_offset": "",
  "active_flag": "",
  "type": "agrimet",
  "responsibility": "pnro",
  "agency_region": "PN",
  "siteid": "crvo",
  "elevation": "70.1"
}, {
  "description": "Castle Dale, Utah Weather Station",
  "state": "UT",
  "latitude": "39.220131",
  "longitude": "-111.07003",
  "timezone": "US\/Mountain",
  "install": "12\/1\/2014",
  "horizontal_datum": "",
  "vertical_datum": "m",
  "vertical_accuracy": 0,
  "elevation_method": "agrimet_map",
  "tz_offset": "",
  "active_flag": "",
  "type": "agrimet",
  "responsibility": "pnro",
  "agency_region": "PN",
  "siteid": "csdu",
  "elevation": "1798"
}, {
  "description": "Castle Valley, Utah AgriMet Weather Station",
  "state": "UT",
  "latitude": "38.648302",
  "longitude": "-109.398967",
  "timezone": "US\/Mountain",
  "install": "3\/11\/2015",
  "horizontal_datum": "",
  "vertical_datum": "m",
  "vertical_accuracy": 0,
  "elevation_method": "agrimet_map",
  "tz_offset": "",
  "active_flag": "",
  "type": "agrimet",
  "responsibility": "pnro",
  "agency_region": "PN",
  "siteid": "csvu",
  "elevation": "1429"
}, {
  "description": "DRI - Carson Valley, Nevada Weather Station",
  "state": "NV",
  "latitude": "38.992778",
  "longitude": "-119.803889",
  "timezone": "US\/Pacific",
  "install": "8\/10\/2010",
  "horizontal_datum": "",
  "vertical_datum": "m",
  "vertical_accuracy": 0,
  "elevation_method": "agrimet_map",
  "tz_offset": "",
  "active_flag": "",
  "type": "agrimet",
  "responsibility": "dri",
  "agency_region": "PN",
  "siteid": "cvan",
  "elevation": "1425.5496"
}, {
  "description": "Dee Flat, Oregon AgriMet Weather Station",
  "state": "OR",
  "latitude": "45.58638",
  "longitude": "-121.64055",
  "timezone": "US\/Pacific",
  "install": "11\/1\/1988",
  "horizontal_datum": "",
  "vertical_datum": "m",
  "vertical_accuracy": 0,
  "elevation_method": "agrimet_map",
  "tz_offset": "",
  "active_flag": "",
  "type": "agrimet",
  "responsibility": "pnro",
  "agency_region": "PN",
  "siteid": "defo",
  "elevation": "350.52"
}, {
  "description": "Dworshak - Dent Acres, Idaho AgriMet Weather Station",
  "state": "ID",
  "latitude": "46.62333",
  "longitude": "-116.22055",
  "timezone": "US\/Mountain",
  "install": "4\/19\/2002",
  "horizontal_datum": "",
  "vertical_datum": "m",
  "vertical_accuracy": 0,
  "elevation_method": "agrimet_map",
  "tz_offset": "",
  "active_flag": "",
  "type": "agrimet",
  "responsibility": "pnro",
  "agency_region": "PN",
  "siteid": "deni",
  "elevation": "499.87"
}, {
  "description": "UCC - Drainage Farm, Utah Weather Station",
  "state": "UT",
  "latitude": "41.76295",
  "longitude": "-111.87895",
  "timezone": "US\/Mountain",
  "install": "",
  "horizontal_datum": "",
  "vertical_datum": "m",
  "vertical_accuracy": 0,
  "elevation_method": "agrimet_map",
  "tz_offset": "",
  "active_flag": "",
  "type": "agrimet",
  "responsibility": "ucc",
  "agency_region": "PN",
  "siteid": "drfu",
  "elevation": "1351.788"
}, {
  "description": "Deer Lodge, Montana AgriMet Weather Station",
  "state": "MT",
  "latitude": "46.33555",
  "longitude": "-112.76666",
  "timezone": "US\/Mountain",
  "install": "6\/4\/1998",
  "horizontal_datum": "",
  "vertical_datum": "m",
  "vertical_accuracy": 0,
  "elevation_method": "agrimet_map",
  "tz_offset": "",
  "active_flag": "",
  "type": "agrimet",
  "responsibility": "pnro",
  "agency_region": "PN",
  "siteid": "drlm",
  "elevation": "1426.46"
}, {
  "description": "Deer Park, Washington Weather Station",
  "state": "WA",
  "latitude": "47.954642",
  "longitude": "-117.433522",
  "timezone": "US\/Pacific",
  "install": "6\/25\/2014",
  "horizontal_datum": "",
  "vertical_datum": "m",
  "vertical_accuracy": 0,
  "elevation_method": "agrimet_map",
  "tz_offset": "",
  "active_flag": "",
  "type": "agrimet",
  "responsibility": "pnro",
  "agency_region": "PN",
  "siteid": "drpw",
  "elevation": "662.94"
}, {
  "description": "Detroit Lake, Oregon AgriMet Weather Station",
  "state": "OR",
  "latitude": "44.73",
  "longitude": "-122.17916",
  "timezone": "US\/Pacific",
  "install": "4\/19\/2002",
  "horizontal_datum": "",
  "vertical_datum": "m",
  "vertical_accuracy": 0,
  "elevation_method": "agrimet_map",
  "tz_offset": "",
  "active_flag": "",
  "type": "agrimet",
  "responsibility": "pnro",
  "agency_region": "PN",
  "siteid": "dtro",
  "elevation": "510.54"
}, {
  "description": "Duchesne, Utah AgriMet Weather Station",
  "state": "UT",
  "latitude": "40.18068",
  "longitude": "-110.36013",
  "timezone": "US\/Mountain",
  "install": "",
  "horizontal_datum": "",
  "vertical_datum": "m",
  "vertical_accuracy": 0,
  "elevation_method": "agrimet_map",
  "tz_offset": "",
  "active_flag": "",
  "type": "agrimet",
  "responsibility": "pnro",
  "agency_region": "PN",
  "siteid": "ducu",
  "elevation": "1675"
}, {
  "description": "Downey, Idaho Weather Station",
  "state": "ID",
  "latitude": "42.43355",
  "longitude": "-112.12929",
  "timezone": "US\/Mountain",
  "install": "3\/27\/2015",
  "horizontal_datum": "",
  "vertical_datum": "m",
  "vertical_accuracy": 0,
  "elevation_method": "agrimet_map",
  "tz_offset": "",
  "active_flag": "",
  "type": "agrimet",
  "responsibility": "pnro",
  "agency_region": "PN",
  "siteid": "dwni",
  "elevation": "1483"
}, {
  "description": "INL - Material Fuels Complex, Idaho",
  "state": "ID",
  "latitude": "43.594133",
  "longitude": "-112.651733",
  "timezone": "US\/Mountain",
  "install": "",
  "horizontal_datum": "",
  "vertical_datum": "ft",
  "vertical_accuracy": 0,
  "elevation_method": "",
  "tz_offset": "",
  "active_flag": "",
  "type": "agrimet",
  "responsibility": "noaa",
  "agency_region": "PN",
  "siteid": "ebri",
  "elevation": "1687.33595800525"
}, {
  "description": "Echo, Oregon AgriMet Weather Station",
  "state": "OR",
  "latitude": "45.71861",
  "longitude": "-119.31111",
  "timezone": "US\/Pacific",
  "install": "3\/1\/1988",
  "horizontal_datum": "",
  "vertical_datum": "m",
  "vertical_accuracy": 0,
  "elevation_method": "agrimet_map",
  "tz_offset": "",
  "active_flag": "",
  "type": "agrimet",
  "responsibility": "pnro",
  "agency_region": "PN",
  "siteid": "echo",
  "elevation": "231.65"
}, {
  "description": "Entiat Fish Hatchery, Washington Weather Station",
  "state": "WA",
  "latitude": "47.69796",
  "longitude": "-120.32373",
  "timezone": "US\/Pacific",
  "install": "9\/26\/2013",
  "horizontal_datum": "",
  "vertical_datum": "m",
  "vertical_accuracy": 0,
  "elevation_method": "agrimet_map",
  "tz_offset": "",
  "active_flag": "",
  "type": "agrimet",
  "responsibility": "pnro",
  "agency_region": "PN",
  "siteid": "efhw",
  "elevation": "315"
}, {
  "description": "Elmo, Utah Weather Station",
  "state": "UT",
  "latitude": "39.421265",
  "longitude": "-110.83798",
  "timezone": "US\/Mountain",
  "install": "12\/3\/2014",
  "horizontal_datum": "",
  "vertical_datum": "m",
  "vertical_accuracy": 0,
  "elevation_method": "agrimet_map",
  "tz_offset": "",
  "active_flag": "",
  "type": "agrimet",
  "responsibility": "pnro",
  "agency_region": "PN",
  "siteid": "elmu",
  "elevation": "1744"
}, {
  "description": "Eureka, Nevada AgriMet Weather Station ",
  "state": "NV",
  "latitude": "39.68527",
  "longitude": "-115.97861",
  "timezone": "US\/Pacific",
  "install": "6\/1\/1987",
  "horizontal_datum": "",
  "vertical_datum": "m",
  "vertical_accuracy": 0,
  "elevation_method": "agrimet_map",
  "tz_offset": "",
  "active_flag": "",
  "type": "agrimet",
  "responsibility": "pnro",
  "agency_region": "PN",
  "siteid": "eurn",
  "elevation": "1797.41"
}, {
  "description": "UCC - Evan's Farm, Utah Weather Station",
  "state": "UT",
  "latitude": "41.6945",
  "longitude": "-111.833166666667",
  "timezone": "US\/Mountain",
  "install": "",
  "horizontal_datum": "",
  "vertical_datum": "m",
  "vertical_accuracy": 0,
  "elevation_method": "agrimet_map",
  "tz_offset": "",
  "active_flag": "",
  "type": "agrimet",
  "responsibility": "ucc",
  "agency_region": "PN",
  "siteid": "evfu",
  "elevation": "1382.268"
}, {
  "description": "Evanston, Wyoming AgriMet Weather Station",
  "state": "WY",
  "latitude": "41.19713",
  "longitude": "-111.02937",
  "timezone": "US\/Mountain",
  "install": "3\/9\/2015",
  "horizontal_datum": "",
  "vertical_datum": "",
  "vertical_accuracy": 0,
  "elevation_method": "",
  "tz_offset": "",
  "active_flag": "",
  "type": "agrimet",
  "responsibility": "pnro",
  "agency_region": "PN",
  "siteid": "evty",
  "elevation": "2080"
}, {
  "description": "Fairfield, Idaho AgriMet Weather Station ",
  "state": "ID",
  "latitude": "43.31305",
  "longitude": "-114.82222",
  "timezone": "US\/Mountain",
  "install": "6\/1\/1987",
  "horizontal_datum": "",
  "vertical_datum": "m",
  "vertical_accuracy": 0,
  "elevation_method": "agrimet_map",
  "tz_offset": "",
  "active_flag": "",
  "type": "agrimet",
  "responsibility": "pnro",
  "agency_region": "PN",
  "siteid": "fafi",
  "elevation": "1535.58"
}, {
  "description": "Fallon, Nevada AgriMet Weather Station",
  "state": "NV",
  "latitude": "39.4575",
  "longitude": "-118.77388",
  "timezone": "US\/Pacific",
  "install": "4\/1\/2001",
  "horizontal_datum": "",
  "vertical_datum": "m",
  "vertical_accuracy": 0,
  "elevation_method": "agrimet_map",
  "tz_offset": "",
  "active_flag": "",
  "type": "agrimet",
  "responsibility": "pnro",
  "agency_region": "PN",
  "siteid": "faln",
  "elevation": "1208.53"
}, {
  "description": "UCC - Flowell, Utah Weather Station",
  "state": "UT",
  "latitude": "38.9571",
  "longitude": "-112.0004",
  "timezone": "US\/Mountain",
  "install": "",
  "horizontal_datum": "",
  "vertical_datum": "m",
  "vertical_accuracy": 0,
  "elevation_method": "agrimet_map",
  "tz_offset": "",
  "active_flag": "",
  "type": "agrimet",
  "responsibility": "ucc",
  "agency_region": "PN",
  "siteid": "flou",
  "elevation": "1443.228"
}, {
  "description": "Forest Grove, Oregon AgriMet Weather Station",
  "state": "OR",
  "latitude": "45.55305",
  "longitude": "-123.08361",
  "timezone": "US\/Pacific",
  "install": "5\/1\/1989",
  "horizontal_datum": "",
  "vertical_datum": "m",
  "vertical_accuracy": 0,
  "elevation_method": "agrimet_map",
  "tz_offset": "",
  "active_flag": "",
  "type": "agrimet",
  "responsibility": "pnro",
  "agency_region": "PN",
  "siteid": "fogo",
  "elevation": "54.86"
}, {
  "description": "Ferron, Utah Weather Station",
  "state": "UT",
  "latitude": "39.075554",
  "longitude": "-111.15426",
  "timezone": "US\/Mountain",
  "install": "12\/2\/2014",
  "horizontal_datum": "",
  "vertical_datum": "m",
  "vertical_accuracy": 0,
  "elevation_method": "agrimet_map",
  "tz_offset": "",
  "active_flag": "",
  "type": "agrimet",
  "responsibility": "pnro",
  "agency_region": "PN",
  "siteid": "frnu",
  "elevation": "1830"
}, {
  "description": "Fort Hall, Idaho AgriMet Weather Station ",
  "state": "ID",
  "latitude": "43.07138",
  "longitude": "-112.43111",
  "timezone": "US\/Mountain",
  "install": "11\/15\/1992",
  "horizontal_datum": "",
  "vertical_datum": "m",
  "vertical_accuracy": 0,
  "elevation_method": "agrimet_map",
  "tz_offset": "",
  "active_flag": "",
  "type": "agrimet",
  "responsibility": "pnro",
  "agency_region": "PN",
  "siteid": "fthi",
  "elevation": "1354.84"
}, {
  "description": "Grand Coulee Dam, Washington AgriMet Weather Station",
  "state": "WA",
  "latitude": "47.94527",
  "longitude": "-118.95361",
  "timezone": "US\/Pacific",
  "install": "4\/16\/2002",
  "horizontal_datum": "",
  "vertical_datum": "m",
  "vertical_accuracy": 0,
  "elevation_method": "agrimet_map",
  "tz_offset": "",
  "active_flag": "",
  "type": "agrimet",
  "responsibility": "pnro",
  "agency_region": "PN",
  "siteid": "gcdw",
  "elevation": "402.34"
}, {
  "description": "Grand View, Idaho AgriMet Weather Station",
  "state": "ID",
  "latitude": "42.9125",
  "longitude": "-116.05611",
  "timezone": "US\/Mountain",
  "install": "10\/1\/1992",
  "horizontal_datum": "",
  "vertical_datum": "m",
  "vertical_accuracy": 0,
  "elevation_method": "agrimet_map",
  "tz_offset": "",
  "active_flag": "",
  "type": "agrimet",
  "responsibility": "pnro",
  "agency_region": "PN",
  "siteid": "gdvi",
  "elevation": "786.38"
}, {
  "description": "George, Washington AgriMet Weather Station",
  "state": "WA",
  "latitude": "47.04388",
  "longitude": "-119.64222",
  "timezone": "US\/Pacific",
  "install": "5\/1\/1986",
  "horizontal_datum": "",
  "vertical_datum": "m",
  "vertical_accuracy": 0,
  "elevation_method": "agrimet_map",
  "tz_offset": "",
  "active_flag": "",
  "type": "agrimet",
  "responsibility": "pnro",
  "agency_region": "PN",
  "siteid": "gerw",
  "elevation": "350.52"
}, {
  "description": "Glenns Ferry, Idaho AgriMet Weather Station",
  "state": "ID",
  "latitude": "42.86666",
  "longitude": "-115.35694",
  "timezone": "US\/Mountain",
  "install": "11\/15\/1992",
  "horizontal_datum": "",
  "vertical_datum": "m",
  "vertical_accuracy": 0,
  "elevation_method": "agrimet_map",
  "tz_offset": "",
  "active_flag": "",
  "type": "agrimet",
  "responsibility": "pnro",
  "agency_region": "PN",
  "siteid": "gfri",
  "elevation": "922.02"
}, {
  "description": "Goldendale, Washington AgriMet Weather Station",
  "state": "WA",
  "latitude": "45.81194",
  "longitude": "-120.82444",
  "timezone": "US\/Pacific",
  "install": "10\/24\/1991",
  "horizontal_datum": "",
  "vertical_datum": "m",
  "vertical_accuracy": 0,
  "elevation_method": "agrimet_map",
  "tz_offset": "",
  "active_flag": "",
  "type": "agrimet",
  "responsibility": "pnro",
  "agency_region": "PN",
  "siteid": "golw",
  "elevation": "512.06"
}, {
  "description": "Grace, Idaho AgriMet Weather Station",
  "state": "ID",
  "latitude": "42.51496",
  "longitude": "-111.73606",
  "timezone": "US\/Mountain",
  "install": "3\/13\/2014",
  "horizontal_datum": "",
  "vertical_datum": "m",
  "vertical_accuracy": 0,
  "elevation_method": "agrimet_map",
  "tz_offset": "",
  "active_flag": "",
  "type": "agrimet",
  "responsibility": "pnro",
  "agency_region": "PN",
  "siteid": "grei",
  "elevation": "1661"
}, {
  "description": "Grantsville, Utah AgriMet Weather Station",
  "state": "UT",
  "latitude": "40.530544",
  "longitude": "-112.756527",
  "timezone": "US\/Mountain",
  "install": "3\/10\/2015",
  "horizontal_datum": "",
  "vertical_datum": "m",
  "vertical_accuracy": 0,
  "elevation_method": "agrimet_map",
  "tz_offset": "",
  "active_flag": "",
  "type": "agrimet",
  "responsibility": "pnro",
  "agency_region": "PN",
  "siteid": "grtu",
  "elevation": "1331"
}, {
  "description": "INL - Hamer, Idaho Weather Station",
  "state": "ID",
  "latitude": "44.007417",
  "longitude": "-112.238833",
  "timezone": "US\/Mountain",
  "install": "",
  "horizontal_datum": "",
  "vertical_datum": "m",
  "vertical_accuracy": 0,
  "elevation_method": "agrimet_map",
  "tz_offset": "",
  "active_flag": "",
  "type": "agrimet",
  "responsibility": "noaa",
  "agency_region": "PN",
  "siteid": "hami",
  "elevation": "1476.1464"
}, {
  "description": "Hermiston, Oregon AgriMet Weather Station",
  "state": "OR",
  "latitude": "45.82111",
  "longitude": "-119.52138",
  "timezone": "US\/Pacific",
  "install": "5\/1\/1983",
  "horizontal_datum": "",
  "vertical_datum": "m",
  "vertical_accuracy": 0,
  "elevation_method": "agrimet_map",
  "tz_offset": "",
  "active_flag": "",
  "type": "agrimet",
  "responsibility": "pnro",
  "agency_region": "PN",
  "siteid": "hero",
  "elevation": "167.64"
}, {
  "description": "Huntington, Utah Weather Station",
  "state": "UT",
  "latitude": "39.307898",
  "longitude": "-110.97399",
  "timezone": "US\/Mountain",
  "install": "12\/2\/2014",
  "horizontal_datum": "",
  "vertical_datum": "m",
  "vertical_accuracy": 0,
  "elevation_method": "agrimet_map",
  "tz_offset": "",
  "active_flag": "",
  "type": "agrimet",
  "responsibility": "pnro",
  "agency_region": "PN",
  "siteid": "hntu",
  "elevation": "1754"
}, {
  "description": "Hood River, Oregon AgriMet Weather Station",
  "state": "OR",
  "latitude": "45.68444",
  "longitude": "-121.51805",
  "timezone": "US\/Pacific",
  "install": "5\/1\/1987",
  "horizontal_datum": "",
  "vertical_datum": "m",
  "vertical_accuracy": 0,
  "elevation_method": "agrimet_map",
  "tz_offset": "",
  "active_flag": "",
  "type": "agrimet",
  "responsibility": "pnro",
  "agency_region": "PN",
  "siteid": "hoxo",
  "elevation": "155.45"
}, {
  "description": "Hereford, Oregon AgriMet Weather Station",
  "state": "OR",
  "latitude": "44.48805",
  "longitude": "-118.02",
  "timezone": "US\/Pacific",
  "install": "4\/28\/1998",
  "horizontal_datum": "",
  "vertical_datum": "m",
  "vertical_accuracy": 0,
  "elevation_method": "agrimet_map",
  "tz_offset": "",
  "active_flag": "",
  "type": "agrimet",
  "responsibility": "pnro",
  "agency_region": "PN",
  "siteid": "hrfo",
  "elevation": "1097.28"
}, {
  "description": "Harrah, Washington AgriMet Weather Station",
  "state": "WA",
  "latitude": "46.38472",
  "longitude": "-120.57444",
  "timezone": "US\/Pacific",
  "install": "5\/1\/1987",
  "horizontal_datum": "",
  "vertical_datum": "m",
  "vertical_accuracy": 0,
  "elevation_method": "agrimet_map",
  "tz_offset": "",
  "active_flag": "",
  "type": "agrimet",
  "responsibility": "pnro",
  "agency_region": "PN",
  "siteid": "hrhw",
  "elevation": "259.08"
}, {
  "description": "Hermiston R & E Center, Oregon AgriMet Weather Station",
  "state": "OR",
  "latitude": "45.81944",
  "longitude": "-119.28333",
  "timezone": "US\/Pacific",
  "install": "7\/15\/1993",
  "horizontal_datum": "",
  "vertical_datum": "m",
  "vertical_accuracy": 0,
  "elevation_method": "agrimet_map",
  "tz_offset": "",
  "active_flag": "",
  "type": "agrimet",
  "responsibility": "pnro",
  "agency_region": "PN",
  "siteid": "hrmo",
  "elevation": "185.01"
}, {
  "description": "DRI - Hualapai Flat, Nevada Weather Station",
  "state": "NV",
  "latitude": "40.901111",
  "longitude": "-119.333056",
  "timezone": "US\/Pacific",
  "install": "10\/12\/2012",
  "horizontal_datum": "",
  "vertical_datum": "m",
  "vertical_accuracy": 0,
  "elevation_method": "agrimet_map",
  "tz_offset": "",
  "active_flag": "",
  "type": "agrimet",
  "responsibility": "dri",
  "agency_region": "PN",
  "siteid": "huan",
  "elevation": "1235.964"
}, {
  "description": "INL - Richfield, Idaho Weather Station",
  "state": "ID",
  "latitude": "43.0606",
  "longitude": "-114.134583",
  "timezone": "US\/Mountain",
  "install": "",
  "horizontal_datum": "",
  "vertical_datum": "m",
  "vertical_accuracy": 0,
  "elevation_method": "agrimet_map",
  "tz_offset": "",
  "active_flag": "",
  "type": "agrimet",
  "responsibility": "noaa",
  "agency_region": "PN",
  "siteid": "ichi",
  "elevation": "1328.3184"
}, {
  "description": "INL - Idaho Falls, Idaho Weather Station",
  "state": "ID",
  "latitude": "43.504133",
  "longitude": "-112.050133",
  "timezone": "US\/Mountain",
  "install": "",
  "horizontal_datum": "",
  "vertical_datum": "m",
  "vertical_accuracy": 0,
  "elevation_method": "agrimet_map",
  "tz_offset": "",
  "active_flag": "",
  "type": "agrimet",
  "responsibility": "noaa",
  "agency_region": "PN",
  "siteid": "ifai",
  "elevation": "1435.3032"
}, {
  "description": "INL - INTEC\/Grid 3, Idaho",
  "state": "ID",
  "latitude": "43.5897",
  "longitude": "-112.730267",
  "timezone": "US\/Mountain",
  "install": "",
  "horizontal_datum": "0",
  "vertical_datum": "ft",
  "vertical_accuracy": 0,
  "elevation_method": "",
  "tz_offset": "",
  "active_flag": "",
  "type": "agrimet",
  "responsibility": "noaa",
  "agency_region": "PN",
  "siteid": "igri",
  "elevation": "1606.62729658793"
}, {
  "description": "Imbler, Oregon AgriMet Weather Station",
  "state": "OR",
  "latitude": "45.43333",
  "longitude": "-117.96666",
  "timezone": "US\/Pacific",
  "install": "4\/1\/1994",
  "horizontal_datum": "",
  "vertical_datum": "m",
  "vertical_accuracy": 0,
  "elevation_method": "agrimet_map",
  "tz_offset": "",
  "active_flag": "",
  "type": "agrimet",
  "responsibility": "pnro",
  "agency_region": "PN",
  "siteid": "imbo",
  "elevation": "838.2"
}, {
  "description": "Klamath Falls, Oregon AgriMet Weather Station",
  "state": "OR",
  "latitude": "42.16472",
  "longitude": "-121.755",
  "timezone": "US\/Pacific",
  "install": "3\/30\/1999",
  "horizontal_datum": "",
  "vertical_datum": "m",
  "vertical_accuracy": 0,
  "elevation_method": "agrimet_map",
  "tz_offset": "",
  "active_flag": "",
  "type": "agrimet",
  "responsibility": "pnro",
  "agency_region": "PN",
  "siteid": "kflo",
  "elevation": "1249.68"
}, {
  "description": "Kettle Falls, Washington AgriMet Weather Station",
  "state": "WA",
  "latitude": "48.595",
  "longitude": "-118.12416",
  "timezone": "US\/Pacific",
  "install": "4\/17\/2002",
  "horizontal_datum": "",
  "vertical_datum": "m",
  "vertical_accuracy": 0,
  "elevation_method": "agrimet_map",
  "tz_offset": "",
  "active_flag": "",
  "type": "agrimet",
  "responsibility": "pnro",
  "agency_region": "PN",
  "siteid": "kflw",
  "elevation": "408.43"
}, {
  "description": "Kettle Butte, Idaho Weather Station",
  "state": "ID",
  "latitude": "43.5486111111111",
  "longitude": "-112.325833333333",
  "timezone": "US\/Mountain",
  "install": "10\/15\/1995",
  "horizontal_datum": "",
  "vertical_datum": "m",
  "vertical_accuracy": 0,
  "elevation_method": "agrimet_map",
  "tz_offset": "",
  "active_flag": "",
  "type": "agrimet",
  "responsibility": "noaa",
  "agency_region": "PN",
  "siteid": "ktbi",
  "elevation": "1565"
}, {
  "description": "Lakeview, Oregon AgriMet Weather Station",
  "state": "OR",
  "latitude": "42.12222",
  "longitude": "-120.52305",
  "timezone": "US\/Pacific",
  "install": "4\/1\/1988",
  "horizontal_datum": "",
  "vertical_datum": "m",
  "vertical_accuracy": 0,
  "elevation_method": "agrimet_map",
  "tz_offset": "",
  "active_flag": "",
  "type": "agrimet",
  "responsibility": "pnro",
  "agency_region": "PN",
  "siteid": "lako",
  "elevation": "1453.9"
}, {
  "description": "UCC - Laketown , Utah Weather Station",
  "state": "UT",
  "latitude": "41.8379",
  "longitude": "-111.334383333333",
  "timezone": "US\/Mountain",
  "install": "",
  "horizontal_datum": "",
  "vertical_datum": "m",
  "vertical_accuracy": 0,
  "elevation_method": "agrimet_map",
  "tz_offset": "",
  "active_flag": "",
  "type": "agrimet",
  "responsibility": "ucc",
  "agency_region": "PN",
  "siteid": "laku",
  "elevation": "1816.3032"
}, {
  "description": "Lake Bryan - Rice Bar, Washington AgriMet Weather Station",
  "state": "WA",
  "latitude": "46.6975",
  "longitude": "-117.65416",
  "timezone": "US\/Pacific",
  "install": "4\/19\/2002",
  "horizontal_datum": "",
  "vertical_datum": "m",
  "vertical_accuracy": 0,
  "elevation_method": "agrimet_map",
  "tz_offset": "",
  "active_flag": "",
  "type": "agrimet",
  "responsibility": "pnro",
  "agency_region": "PN",
  "siteid": "lbrw",
  "elevation": "192.02"
}, {
  "description": "Legrow, Washington AgriMet Weather Station",
  "state": "WA",
  "latitude": "46.20527",
  "longitude": "-118.93611",
  "timezone": "US\/Pacific",
  "install": "7\/1\/1986",
  "horizontal_datum": "",
  "vertical_datum": "m",
  "vertical_accuracy": 0,
  "elevation_method": "agrimet_map",
  "tz_offset": "",
  "active_flag": "",
  "type": "agrimet",
  "responsibility": "pnro",
  "agency_region": "PN",
  "siteid": "legw",
  "elevation": "176.78"
}, {
  "description": "UCC - Lewiston, Utah Weather Station",
  "state": "UT",
  "latitude": "41.9521333333333",
  "longitude": "-111.869033333333",
  "timezone": "US\/Mountain",
  "install": "",
  "horizontal_datum": "",
  "vertical_datum": "m",
  "vertical_accuracy": 0,
  "elevation_method": "agrimet_map",
  "tz_offset": "",
  "active_flag": "",
  "type": "agrimet",
  "responsibility": "ucc",
  "agency_region": "PN",
  "siteid": "lewu",
  "elevation": "1375.8672"
}, {
  "description": "UCC - Logan Golf, Utah Weather Station",
  "state": "UT",
  "latitude": "41.7386833333333",
  "longitude": "-111.803533333333",
  "timezone": "US\/Mountain",
  "install": "",
  "horizontal_datum": "",
  "vertical_datum": "m",
  "vertical_accuracy": 0,
  "elevation_method": "agrimet_map",
  "tz_offset": "",
  "active_flag": "",
  "type": "agrimet",
  "responsibility": "ucc",
  "agency_region": "PN",
  "siteid": "lggu",
  "elevation": "1465.4784"
}, {
  "description": "Liberty Lake, Washington Weather Station",
  "state": "WA",
  "latitude": "47.665330",
  "longitude": "-117.087208",
  "timezone": "US\/Pacific",
  "install": "11\/18\/2014",
  "horizontal_datum": "",
  "vertical_datum": "m",
  "vertical_accuracy": 0,
  "elevation_method": "agrimet_map",
  "tz_offset": "",
  "active_flag": "",
  "type": "agrimet",
  "responsibility": "pnro",
  "agency_region": "PN",
  "siteid": "libw",
  "elevation": "632"
}, {
  "description": "Lind, Washington AgriMet Weather Station",
  "state": "WA",
  "latitude": "46.86722",
  "longitude": "-118.73944",
  "timezone": "US\/Pacific",
  "install": "5\/1\/1983",
  "horizontal_datum": "",
  "vertical_datum": "m",
  "vertical_accuracy": 0,
  "elevation_method": "agrimet_map",
  "tz_offset": "",
  "active_flag": "",
  "type": "agrimet",
  "responsibility": "pnro",
  "agency_region": "PN",
  "siteid": "lidw",
  "elevation": "449.58"
}, {
  "description": "INL - Specific Manufacturing Capability, Idaho",
  "state": "ID",
  "latitude": "43.859767",
  "longitude": "-112.730267",
  "timezone": "US\/Mountain",
  "install": "",
  "horizontal_datum": "",
  "vertical_datum": "ft",
  "vertical_accuracy": 0,
  "elevation_method": "",
  "tz_offset": "",
  "active_flag": "",
  "type": "agrimet",
  "responsibility": "noaa",
  "agency_region": "PN",
  "siteid": "lofi",
  "elevation": "1571.52230971129"
}, {
  "description": "Lorella, Oregon AgriMet Weather Station",
  "state": "OR",
  "latitude": "42.07777",
  "longitude": "-121.22416",
  "timezone": "US\/Pacific",
  "install": "4\/1\/2001",
  "horizontal_datum": "",
  "vertical_datum": "m",
  "vertical_accuracy": 0,
  "elevation_method": "agrimet_map",
  "tz_offset": "",
  "active_flag": "",
  "type": "agrimet",
  "responsibility": "pnro",
  "agency_region": "PN",
  "siteid": "loro",
  "elevation": "1267.97"
}, {
  "description": "Malta, Idaho AgriMet Weather Station",
  "state": "ID",
  "latitude": "42.4375",
  "longitude": "-113.41388",
  "timezone": "US\/Mountain",
  "install": "6\/1\/1983",
  "horizontal_datum": "",
  "vertical_datum": "m",
  "vertical_accuracy": 0,
  "elevation_method": "agrimet_map",
  "tz_offset": "",
  "active_flag": "",
  "type": "agrimet",
  "responsibility": "pnro",
  "agency_region": "PN",
  "siteid": "mali",
  "elevation": "1344.17"
}, {
  "description": "Manson, Washington AgriMet Weather Station",
  "state": "WA",
  "latitude": "47.91694",
  "longitude": "-120.12444",
  "timezone": "US\/Pacific",
  "install": "11\/3\/1993",
  "horizontal_datum": "",
  "vertical_datum": "m",
  "vertical_accuracy": 0,
  "elevation_method": "agrimet_map",
  "tz_offset": "",
  "active_flag": "",
  "type": "agrimet",
  "responsibility": "pnro",
  "agency_region": "PN",
  "siteid": "masw",
  "elevation": "601.07"
}, {
  "description": "Moody Farms East Satellite, Oregon Weather Station",
  "state": "OR",
  "latitude": "44.87789",
  "longitude": "-121.07621",
  "timezone": "US\/Pacific",
  "install": "9\/10\/2013 12:00:00 AM",
  "horizontal_datum": "",
  "vertical_datum": "ft",
  "vertical_accuracy": 0,
  "elevation_method": "",
  "tz_offset": "",
  "active_flag": "",
  "type": "agrimet",
  "responsibility": "pnro",
  "agency_region": "PN",
  "siteid": "mdeo",
  "elevation": "399"
}, {
  "description": "Medford, Oregon AgriMet Weather Station",
  "state": "OR",
  "latitude": "42.33111",
  "longitude": "-122.93777",
  "timezone": "US\/Pacific",
  "install": "5\/1\/1989",
  "horizontal_datum": "",
  "vertical_datum": "m",
  "vertical_accuracy": 0,
  "elevation_method": "agrimet_map",
  "tz_offset": "",
  "active_flag": "",
  "type": "agrimet",
  "responsibility": "pnro",
  "agency_region": "PN",
  "siteid": "mdfo",
  "elevation": "408.43"
}, {
  "description": "INL - Minidoka, Idaho Weather Station",
  "state": "ID",
  "latitude": "42.804417",
  "longitude": "-113.58965",
  "timezone": "US\/Mountain",
  "install": "",
  "horizontal_datum": "",
  "vertical_datum": "m",
  "vertical_accuracy": 0,
  "elevation_method": "agrimet_map",
  "tz_offset": "",
  "active_flag": "",
  "type": "agrimet",
  "responsibility": "noaa",
  "agency_region": "PN",
  "siteid": "mdki",
  "elevation": "1306.068"
}, {
  "description": "Moody Farms North Satellite, Oregon Weather Station",
  "state": "OR",
  "latitude": "44.87365",
  "longitude": "-121.06748",
  "timezone": "US\/Pacific",
  "install": "9\/10\/2013 12:00:00 AM",
  "horizontal_datum": "",
  "vertical_datum": "ft",
  "vertical_accuracy": 0,
  "elevation_method": "",
  "tz_offset": "",
  "active_flag": "",
  "type": "agrimet",
  "responsibility": "pnro",
  "agency_region": "PN",
  "siteid": "mdno",
  "elevation": "402"
}, {
  "description": "Moody Farms South Satellite, Oregon Weather Station",
  "state": "OR",
  "latitude": "44.86472",
  "longitude": "-121.06508",
  "timezone": "US\/Pacific",
  "install": "9\/10\/2013 12:00:00 AM",
  "horizontal_datum": "",
  "vertical_datum": "ft",
  "vertical_accuracy": 0,
  "elevation_method": "",
  "tz_offset": "",
  "active_flag": "",
  "type": "agrimet",
  "responsibility": "pnro",
  "agency_region": "PN",
  "siteid": "mdso",
  "elevation": "426"
}, {
  "description": "Moody Farms West Satellite, Oregon Weather Station",
  "state": "OR",
  "latitude": "44.86941",
  "longitude": "-121.07948",
  "timezone": "US\/Pacific",
  "install": "9\/10\/2013 12:00:00 AM",
  "horizontal_datum": "",
  "vertical_datum": "ft",
  "vertical_accuracy": 0,
  "elevation_method": "",
  "tz_offset": "",
  "active_flag": "",
  "type": "agrimet",
  "responsibility": "pnro",
  "agency_region": "PN",
  "siteid": "mdto",
  "elevation": "384"
}, {
  "description": "Moody Farms Control Station, Oregon Weather Station",
  "state": "OR",
  "latitude": "44.86912",
  "longitude": "-121.0683",
  "timezone": "US\/Pacific",
  "install": "9\/9\/2013",
  "horizontal_datum": "",
  "vertical_datum": "m",
  "vertical_accuracy": 0,
  "elevation_method": "agrimet_map",
  "tz_offset": "",
  "active_flag": "",
  "type": "agrimet",
  "responsibility": "pnro",
  "agency_region": "PN",
  "siteid": "mdxo",
  "elevation": "391"
}, {
  "description": "Montpelier, Idaho Weather Station",
  "state": "ID",
  "latitude": "42.25452",
  "longitude": "-111.33773",
  "timezone": "US\/Mountain",
  "install": "",
  "horizontal_datum": "",
  "vertical_datum": "m",
  "vertical_accuracy": 0,
  "elevation_method": "agrimet_map",
  "tz_offset": "",
  "active_flag": "",
  "type": "agrimet",
  "responsibility": "pnro",
  "agency_region": "PN",
  "siteid": "mnpi",
  "elevation": "1823 "
}, {
  "description": "Monroe, Utah AgriMet Weather Station",
  "state": "UT",
  "latitude": "38.634188",
  "longitude": "-112.157598",
  "timezone": "US\/Mountain",
  "install": "3\/11\/2015",
  "horizontal_datum": "",
  "vertical_datum": "m",
  "vertical_accuracy": 0,
  "elevation_method": "agrimet_map",
  "tz_offset": "",
  "active_flag": "",
  "type": "agrimet",
  "responsibility": "pnro",
  "agency_region": "PN",
  "siteid": "mnru",
  "elevation": "1648"
}, {
  "description": "Monteview, Idaho Weather Station",
  "state": "ID",
  "latitude": "44.015",
  "longitude": "-112.535833333333",
  "timezone": "US\/Mountain",
  "install": "10\/15\/1995",
  "horizontal_datum": "",
  "vertical_datum": "m",
  "vertical_accuracy": 0,
  "elevation_method": "agrimet_map",
  "tz_offset": "",
  "active_flag": "",
  "type": "agrimet",
  "responsibility": "pnro",
  "agency_region": "PN",
  "siteid": "mnti",
  "elevation": "1480"
}, {
  "description": "DRI - Moapa Valley, Nevada Weather Station",
  "state": "NV",
  "latitude": "36.569722",
  "longitude": "-114.458889",
  "timezone": "US\/Pacific",
  "install": "2\/10\/2010",
  "horizontal_datum": "",
  "vertical_datum": "m",
  "vertical_accuracy": 0,
  "elevation_method": "agrimet_map",
  "tz_offset": "",
  "active_flag": "",
  "type": "agrimet",
  "responsibility": "dri",
  "agency_region": "PN",
  "siteid": "moan",
  "elevation": "398.6784"
}, {
  "description": "Madras, Oregon AgriMet Weather Station",
  "state": "OR",
  "latitude": "44.68",
  "longitude": "-121.14861",
  "timezone": "US\/Pacific",
  "install": "5\/1\/1984",
  "horizontal_datum": "",
  "vertical_datum": "m",
  "vertical_accuracy": 0,
  "elevation_method": "agrimet_map",
  "tz_offset": "",
  "active_flag": "",
  "type": "agrimet",
  "responsibility": "pnro",
  "agency_region": "PN",
  "siteid": "mrso",
  "elevation": "743.71"
}, {
  "description": "DRI - Mason Valley WMA, Nevada Weather Station",
  "state": "NV",
  "latitude": "39.106667",
  "longitude": "-119.147222",
  "timezone": "US\/Pacific",
  "install": "4\/10\/2011",
  "horizontal_datum": "",
  "vertical_datum": "m",
  "vertical_accuracy": 0,
  "elevation_method": "agrimet_map",
  "tz_offset": "",
  "active_flag": "",
  "type": "agrimet",
  "responsibility": "dri",
  "agency_region": "PN",
  "siteid": "msvn",
  "elevation": "1318.8696"
}, {
  "description": "UCC - Murray, Utah Weather Station",
  "state": "UT",
  "latitude": "40.6313333333333",
  "longitude": "-111.9198",
  "timezone": "US\/Mountain",
  "install": "",
  "horizontal_datum": "",
  "vertical_datum": "m",
  "vertical_accuracy": 0,
  "elevation_method": "agrimet_map",
  "tz_offset": "",
  "active_flag": "",
  "type": "agrimet",
  "responsibility": "ucc",
  "agency_region": "PN",
  "siteid": "muru",
  "elevation": "1307.592"
}, {
  "description": "Middle Warm Springs, Oregon Weather Station",
  "state": "OR",
  "latitude": "44.85424",
  "longitude": "-121.1479",
  "timezone": "US\/Pacific",
  "install": "9\/12\/2013",
  "horizontal_datum": "",
  "vertical_datum": "m",
  "vertical_accuracy": 0,
  "elevation_method": "agrimet_map",
  "tz_offset": "",
  "active_flag": "",
  "type": "agrimet",
  "responsibility": "pnro",
  "agency_region": "PN",
  "siteid": "mwso",
  "elevation": "432"
}, {
  "description": "UCC - Nephi, Utah Weather Station",
  "state": "UT",
  "latitude": "39.6894166666667",
  "longitude": "-111.876783333333",
  "timezone": "US\/Mountain",
  "install": "",
  "horizontal_datum": "",
  "vertical_datum": "m",
  "vertical_accuracy": 0,
  "elevation_method": "agrimet_map",
  "tz_offset": "",
  "active_flag": "",
  "type": "agrimet",
  "responsibility": "ucc",
  "agency_region": "PN",
  "siteid": "nepu",
  "elevation": "1524.6096"
}, {
  "description": "Nampa, Idaho AgriMet Weather Station",
  "state": "ID",
  "latitude": "43.43722",
  "longitude": "-116.64527",
  "timezone": "US\/Mountain",
  "install": "3\/11\/1996",
  "horizontal_datum": "",
  "vertical_datum": "m",
  "vertical_accuracy": 0,
  "elevation_method": "agrimet_map",
  "tz_offset": "",
  "active_flag": "",
  "type": "agrimet",
  "responsibility": "pnro",
  "agency_region": "PN",
  "siteid": "nmpi",
  "elevation": "823.57"
}, {
  "description": "DRI - North Spring Valley, Nevada Weather Station",
  "state": "NV",
  "latitude": "39.458056",
  "longitude": "-114.506667",
  "timezone": "US\/Pacific",
  "install": "6\/11\/2011",
  "horizontal_datum": "",
  "vertical_datum": "m",
  "vertical_accuracy": 0,
  "elevation_method": "agrimet_map",
  "tz_offset": "",
  "active_flag": "",
  "type": "agrimet",
  "responsibility": "dri",
  "agency_region": "PN",
  "siteid": "nsvn",
  "elevation": "1719.6816"
}, {
  "description": "Odessa, Washington AgriMet Weather Station",
  "state": "WA",
  "latitude": "47.30888",
  "longitude": "-118.87861",
  "timezone": "US\/Pacific",
  "install": "4\/1\/1984",
  "horizontal_datum": "",
  "vertical_datum": "m",
  "vertical_accuracy": 0,
  "elevation_method": "agrimet_map",
  "tz_offset": "",
  "active_flag": "",
  "type": "agrimet",
  "responsibility": "pnro",
  "agency_region": "PN",
  "siteid": "odsw",
  "elevation": "502.92"
}, {
  "description": "Omak, Washington AgriMet Weather Station",
  "state": "WA",
  "latitude": "48.4025",
  "longitude": "-119.57611",
  "timezone": "US\/Pacific",
  "install": "1\/1\/1989",
  "horizontal_datum": "",
  "vertical_datum": "m",
  "vertical_accuracy": 0,
  "elevation_method": "agrimet_map",
  "tz_offset": "",
  "active_flag": "",
  "type": "agrimet",
  "responsibility": "pnro",
  "agency_region": "PN",
  "siteid": "omaw",
  "elevation": "376.43"
}, {
  "description": "Ontario, Oregon AgriMet Weather Station",
  "state": "OR",
  "latitude": "43.97777",
  "longitude": "-117.01527",
  "timezone": "US\/Mountain",
  "install": "4\/30\/1992",
  "horizontal_datum": "",
  "vertical_datum": "m",
  "vertical_accuracy": 0,
  "elevation_method": "agrimet_map",
  "tz_offset": "",
  "active_flag": "",
  "type": "agrimet",
  "responsibility": "pnro",
  "agency_region": "PN",
  "siteid": "onto",
  "elevation": "688.85"
}, {
  "description": "Osgood, Idaho AgriMet Weather Station",
  "state": "ID",
  "latitude": "43.58884",
  "longitude": "-112.07568",
  "timezone": "US\/Mountain",
  "install": "3\/13\/2014",
  "horizontal_datum": "",
  "vertical_datum": "m",
  "vertical_accuracy": 0,
  "elevation_method": "agrimet_map",
  "tz_offset": "",
  "active_flag": "",
  "type": "agrimet",
  "responsibility": "pnro",
  "agency_region": "PN",
  "siteid": "osgi",
  "elevation": "1471"
}, {
  "description": "INL - Howe, Idaho Weather Station",
  "state": "ID",
  "latitude": "43.784117",
  "longitude": "-112.977317",
  "timezone": "US\/Mountain",
  "install": "",
  "horizontal_datum": "",
  "vertical_datum": "m",
  "vertical_accuracy": 0,
  "elevation_method": "agrimet_map",
  "tz_offset": "",
  "active_flag": "",
  "type": "agrimet",
  "responsibility": "noaa",
  "agency_region": "PN",
  "siteid": "owei",
  "elevation": "1467.612"
}, {
  "description": "UCC - Panguitch, Utah Weather Station",
  "state": "UT",
  "latitude": "37.8685833333333",
  "longitude": "-112.421766666667",
  "timezone": "US\/Mountain",
  "install": "",
  "horizontal_datum": "",
  "vertical_datum": "m",
  "vertical_accuracy": 0,
  "elevation_method": "agrimet_map",
  "tz_offset": "",
  "active_flag": "",
  "type": "agrimet",
  "responsibility": "ucc",
  "agency_region": "PN",
  "siteid": "panu",
  "elevation": "1996.44"
}, {
  "description": "Parkdale, Oregon AgriMet Weather Station",
  "state": "OR",
  "latitude": "45.54444",
  "longitude": "-121.61666",
  "timezone": "US\/Pacific",
  "install": "11\/1\/1988",
  "horizontal_datum": "",
  "vertical_datum": "m",
  "vertical_accuracy": 0,
  "elevation_method": "agrimet_map",
  "tz_offset": "",
  "active_flag": "",
  "type": "agrimet",
  "responsibility": "pnro",
  "agency_region": "PN",
  "siteid": "paro",
  "elevation": "451.1"
}, {
  "description": "UCC - Parowan, Utah Weather Station",
  "state": "UT",
  "latitude": "37.8622666666667",
  "longitude": "-112.881066666667",
  "timezone": "US\/Mountain",
  "install": "",
  "horizontal_datum": "",
  "vertical_datum": "m",
  "vertical_accuracy": 0,
  "elevation_method": "agrimet_map",
  "tz_offset": "",
  "active_flag": "",
  "type": "agrimet",
  "responsibility": "ucc",
  "agency_region": "PN",
  "siteid": "paru",
  "elevation": "1758.696"
}, {
  "description": "Prairie City, Oregon AgriMet Weather Station",
  "state": "OR",
  "latitude": "44.44083",
  "longitude": "-118.62777",
  "timezone": "US\/Pacific",
  "install": "4\/1\/1989",
  "horizontal_datum": "",
  "vertical_datum": "m",
  "vertical_accuracy": 0,
  "elevation_method": "agrimet_map",
  "tz_offset": "",
  "active_flag": "",
  "type": "agrimet",
  "responsibility": "pnro",
  "agency_region": "PN",
  "siteid": "pcyo",
  "elevation": "1143.61"
}, {
  "description": "Pelican Lake, Utah Weather Station",
  "state": "UT",
  "latitude": "40.17426",
  "longitude": "-109.66665",
  "timezone": "US\/Mountain",
  "install": "12\/3\/2014",
  "horizontal_datum": "",
  "vertical_datum": "m",
  "vertical_accuracy": 0,
  "elevation_method": "agrimet_map",
  "tz_offset": "",
  "active_flag": "",
  "type": "agrimet",
  "responsibility": "pnro",
  "agency_region": "PN",
  "siteid": "pelu",
  "elevation": "1467"
}, {
  "description": "Picabo, Idaho AgriMet Weather Station",
  "state": "ID",
  "latitude": "43.31166",
  "longitude": "-114.16583",
  "timezone": "US\/Mountain",
  "install": "5\/1\/1982",
  "horizontal_datum": "",
  "vertical_datum": "m",
  "vertical_accuracy": 0,
  "elevation_method": "agrimet_map",
  "tz_offset": "",
  "active_flag": "",
  "type": "agrimet",
  "responsibility": "pnro",
  "agency_region": "PN",
  "siteid": "pici",
  "elevation": "1493.52"
}, {
  "description": "Pleasant Valley, Utah Weather Station",
  "state": "UT",
  "latitude": "40.1663",
  "longitude": "-110.09471",
  "timezone": "US\/Mountain",
  "install": "12\/3\/2014",
  "horizontal_datum": "",
  "vertical_datum": "m",
  "vertical_accuracy": 0,
  "elevation_method": "agrimet_map",
  "tz_offset": "",
  "active_flag": "",
  "type": "agrimet",
  "responsibility": "pnro",
  "agency_region": "PN",
  "siteid": "plvu",
  "elevation": "1612"
}, {
  "description": "Parma, Idaho AgriMet Weather Station",
  "state": "ID",
  "latitude": "43.8",
  "longitude": "-116.93333",
  "timezone": "US\/Mountain",
  "install": "3\/1\/1986",
  "horizontal_datum": "",
  "vertical_datum": "m",
  "vertical_accuracy": 0,
  "elevation_method": "agrimet_map",
  "tz_offset": "",
  "active_flag": "",
  "type": "agrimet",
  "responsibility": "pnro",
  "agency_region": "PN",
  "siteid": "pmai",
  "elevation": "702.56"
}, {
  "description": "Pine Grove, Oregon AgriMet Weather Station",
  "state": "OR",
  "latitude": "45.65222",
  "longitude": "-121.50916",
  "timezone": "US\/Pacific",
  "install": "11\/1\/1988",
  "horizontal_datum": "",
  "vertical_datum": "m",
  "vertical_accuracy": 0,
  "elevation_method": "agrimet_map",
  "tz_offset": "",
  "active_flag": "",
  "type": "agrimet",
  "responsibility": "pnro",
  "agency_region": "PN",
  "siteid": "pngo",
  "elevation": "188.98"
}, {
  "description": "Powell Butte, Oregon AgriMet Weather Station",
  "state": "OR",
  "latitude": "44.24833",
  "longitude": "-120.94972",
  "timezone": "US\/Pacific",
  "install": "9\/21\/1993",
  "horizontal_datum": "",
  "vertical_datum": "m",
  "vertical_accuracy": 0,
  "elevation_method": "agrimet_map",
  "tz_offset": "",
  "active_flag": "",
  "type": "agrimet",
  "responsibility": "pnro",
  "agency_region": "PN",
  "siteid": "pobo",
  "elevation": "975.36"
}, {
  "description": "Post Falls, Idaho Weather Station",
  "state": "ID",
  "latitude": "47.713664",
  "longitude": "-116.970096",
  "timezone": "US\/Pacific",
  "install": "11\/18\/2014",
  "horizontal_datum": "",
  "vertical_datum": "m",
  "vertical_accuracy": 0,
  "elevation_method": "agrimet_map",
  "tz_offset": "",
  "active_flag": "",
  "type": "agrimet",
  "responsibility": "pnro",
  "agency_region": "PN",
  "siteid": "psfi",
  "elevation": "665"
}, {
  "description": "Preston, Idaho Weather Station",
  "state": "ID",
  "latitude": "42.10715",
  "longitude": "-111.89363",
  "timezone": "",
  "install": "11\/5\/2014",
  "horizontal_datum": "",
  "vertical_datum": "m",
  "vertical_accuracy": 0,
  "elevation_method": "agrimet_map",
  "tz_offset": "",
  "active_flag": "",
  "type": "agrimet",
  "responsibility": "pnro",
  "agency_region": "PN",
  "siteid": "psti",
  "elevation": "1335"
}, {
  "description": "DRI - Paradise Valley, Nevada Weather Station",
  "state": "NV",
  "latitude": "41.185556",
  "longitude": "-117.660278",
  "timezone": "US\/Pacific",
  "install": "11\/10\/2010",
  "horizontal_datum": "",
  "vertical_datum": "m",
  "vertical_accuracy": 0,
  "elevation_method": "agrimet_map",
  "tz_offset": "",
  "active_flag": "",
  "type": "agrimet",
  "responsibility": "dri",
  "agency_region": "PN",
  "siteid": "pvan",
  "elevation": "1341.12"
}, {
  "description": "DRI - Pahranagat NWR, Nevada Weather Station",
  "state": "NV",
  "latitude": "37.245556",
  "longitude": "-115.106389",
  "timezone": "US\/Pacific",
  "install": "7\/10\/2010",
  "horizontal_datum": "",
  "vertical_datum": "m",
  "vertical_accuracy": 0,
  "elevation_method": "agrimet_map",
  "tz_offset": "",
  "active_flag": "",
  "type": "agrimet",
  "responsibility": "dri",
  "agency_region": "PN",
  "siteid": "pwln",
  "elevation": "982.98"
}, {
  "description": "Round Butte, Montana AgriMet Weather Station",
  "state": "MT",
  "latitude": "47.53944",
  "longitude": "-114.28055",
  "timezone": "US\/Mountain",
  "install": "3\/1\/1989",
  "horizontal_datum": "",
  "vertical_datum": "m",
  "vertical_accuracy": 0,
  "elevation_method": "agrimet_map",
  "tz_offset": "",
  "active_flag": "",
  "type": "agrimet",
  "responsibility": "pnro",
  "agency_region": "PN",
  "siteid": "rdbm",
  "elevation": "926.59"
}, {
  "description": "UCC - Randolph, Utah Weather Station",
  "state": "UT",
  "latitude": "41.8326666666667",
  "longitude": "-111.087716666667",
  "timezone": "US\/Mountain",
  "install": "",
  "horizontal_datum": "",
  "vertical_datum": "m",
  "vertical_accuracy": 0,
  "elevation_method": "agrimet_map",
  "tz_offset": "",
  "active_flag": "",
  "type": "agrimet",
  "responsibility": "ucc",
  "agency_region": "PN",
  "siteid": "rdhu",
  "elevation": "1909.2672"
}, {
  "description": "Rigby, Idaho AgriMet Weather Station",
  "state": "ID",
  "latitude": "43.6772",
  "longitude": "-111.87922",
  "timezone": "US\/Mountain",
  "install": "3\/13\/2014",
  "horizontal_datum": "",
  "vertical_datum": "m",
  "vertical_accuracy": 0,
  "elevation_method": "agrimet_map",
  "tz_offset": "",
  "active_flag": "",
  "type": "agrimet",
  "responsibility": "pnro",
  "agency_region": "PN",
  "siteid": "rgbi",
  "elevation": "1488"
}, {
  "description": "INL - Roberts, Idaho Weather Station",
  "state": "ID",
  "latitude": "43.743517",
  "longitude": "-112.121117",
  "timezone": "US\/Mountain",
  "install": "",
  "horizontal_datum": "",
  "vertical_datum": "m",
  "vertical_accuracy": 0,
  "elevation_method": "agrimet_map",
  "tz_offset": "",
  "active_flag": "",
  "type": "agrimet",
  "responsibility": "noaa",
  "agency_region": "PN",
  "siteid": "robi",
  "elevation": "1450.848"
}, {
  "description": "DRI - Rogers Spring, Nevada Weather Station",
  "state": "NV",
  "latitude": "36.478333",
  "longitude": "-116.330833",
  "timezone": "US\/Pacific",
  "install": "9\/10\/2010",
  "horizontal_datum": "",
  "vertical_datum": "m",
  "vertical_accuracy": 0,
  "elevation_method": "agrimet_map",
  "tz_offset": "",
  "active_flag": "",
  "type": "agrimet",
  "responsibility": "dri",
  "agency_region": "PN",
  "siteid": "rogn",
  "elevation": "688.848"
}, {
  "description": "Rupert, Idaho AgriMet Weather Station",
  "state": "ID",
  "latitude": "42.59555",
  "longitude": "-113.87388",
  "timezone": "US\/Mountain",
  "install": "3\/1\/1988",
  "horizontal_datum": "",
  "vertical_datum": "m",
  "vertical_accuracy": 0,
  "elevation_method": "agrimet_map",
  "tz_offset": "",
  "active_flag": "",
  "type": "agrimet",
  "responsibility": "pnro",
  "agency_region": "PN",
  "siteid": "rpti",
  "elevation": "1266.44"
}, {
  "description": "INL - Arco, Idaho Weather Station",
  "state": "ID",
  "latitude": "43.62455",
  "longitude": "-113.2971",
  "timezone": "US\/Mountain",
  "install": "",
  "horizontal_datum": "",
  "vertical_datum": "m",
  "vertical_accuracy": 0,
  "elevation_method": "agrimet_map",
  "tz_offset": "",
  "active_flag": "",
  "type": "agrimet",
  "responsibility": "noaa",
  "agency_region": "PN",
  "siteid": "rrci",
  "elevation": "1627.3272"
}, {
  "description": "Ririe, Idaho AgriMet Weather Station",
  "state": "ID",
  "latitude": "43.610345",
  "longitude": "-111.700605",
  "timezone": "US\/Mountain",
  "install": "3\/13\/2014",
  "horizontal_datum": "",
  "vertical_datum": "m",
  "vertical_accuracy": 0,
  "elevation_method": "agrimet_map",
  "tz_offset": "",
  "active_flag": "",
  "type": "agrimet",
  "responsibility": "pnro",
  "agency_region": "PN",
  "siteid": "rrii",
  "elevation": "1547"
}, {
  "description": "Rathdrum Prairie, Idaho AgriMet Weather Station",
  "state": "ID",
  "latitude": "47.8",
  "longitude": "-116.83333",
  "timezone": "US\/Pacific",
  "install": "4\/9\/2008",
  "horizontal_datum": "",
  "vertical_datum": "m",
  "vertical_accuracy": 0,
  "elevation_method": "agrimet_map",
  "tz_offset": "",
  "active_flag": "",
  "type": "agrimet",
  "responsibility": "pnro",
  "agency_region": "PN",
  "siteid": "rthi",
  "elevation": "673.61"
}, {
  "description": "Rexburg, Idaho AgriMet Weather Station ",
  "state": "ID",
  "latitude": "43.85",
  "longitude": "-111.76666",
  "timezone": "US\/Mountain",
  "install": "6\/1\/1987",
  "horizontal_datum": "",
  "vertical_datum": "m",
  "vertical_accuracy": 0,
  "elevation_method": "agrimet_map",
  "tz_offset": "",
  "active_flag": "",
  "type": "agrimet",
  "responsibility": "pnro",
  "agency_region": "PN",
  "siteid": "rxgi",
  "elevation": "1485.9"
}, {
  "description": "Seven Bays Marina, Washington AgriMet Weather Station",
  "state": "WA",
  "latitude": "47.85527",
  "longitude": "-118.34111",
  "timezone": "US\/Pacific",
  "install": "4\/16\/2002",
  "horizontal_datum": "",
  "vertical_datum": "m",
  "vertical_accuracy": 0,
  "elevation_method": "agrimet_map",
  "tz_offset": "",
  "active_flag": "",
  "type": "agrimet",
  "responsibility": "pnro",
  "agency_region": "PN",
  "siteid": "sbmw",
  "elevation": "417.58"
}, {
  "description": "Scipio, Utah AgriMet Weather Station",
  "state": "UT",
  "latitude": "39.220090",
  "longitude": "-112.098476",
  "timezone": "US\/Mountain",
  "install": "3\/13\/2015",
  "horizontal_datum": "",
  "vertical_datum": "m",
  "vertical_accuracy": 0,
  "elevation_method": "agrimet_map",
  "tz_offset": "",
  "active_flag": "",
  "type": "agrimet",
  "responsibility": "pnro",
  "agency_region": "PN",
  "siteid": "scpu",
  "elevation": "1627"
}, {
  "description": "Shelley, Idaho Weather Station",
  "state": "ID",
  "latitude": "43.43452",
  "longitude": "-112.14273",
  "timezone": "US\/Mountain",
  "install": "3\/13\/2014",
  "horizontal_datum": "",
  "vertical_datum": "m",
  "vertical_accuracy": 0,
  "elevation_method": "agrimet_map",
  "tz_offset": "",
  "active_flag": "",
  "type": "agrimet",
  "responsibility": "pnro",
  "agency_region": "PN",
  "siteid": "shli",
  "elevation": "1417"
}, {
  "description": "Saint Ignatius, Montana AgriMet Weather Station",
  "state": "MT",
  "latitude": "47.32527",
  "longitude": "-114.08416",
  "timezone": "US\/Mountain",
  "install": "4\/1\/1991",
  "horizontal_datum": "",
  "vertical_datum": "m",
  "vertical_accuracy": 0,
  "elevation_method": "agrimet_map",
  "tz_offset": "",
  "active_flag": "",
  "type": "agrimet",
  "responsibility": "pnro",
  "agency_region": "PN",
  "siteid": "sigm",
  "elevation": "908.3"
}, {
  "description": "Silcott Island, Washington AgriMet Weather Station",
  "state": "WA",
  "latitude": "46.41861",
  "longitude": "-117.18472",
  "timezone": "US\/Pacific",
  "install": "4\/19\/2002",
  "horizontal_datum": "",
  "vertical_datum": "m",
  "vertical_accuracy": 0,
  "elevation_method": "agrimet_map",
  "tz_offset": "",
  "active_flag": "",
  "type": "agrimet",
  "responsibility": "pnro",
  "agency_region": "PN",
  "siteid": "silw",
  "elevation": "251.46"
}, {
  "description": "Silverwood WWTP Athol, Idaho Weather Station",
  "state": "ID",
  "latitude": "47.901142",
  "longitude": "-116.71243",
  "timezone": "US\/Pacific",
  "install": "6\/26\/2014",
  "horizontal_datum": "",
  "vertical_datum": "m",
  "vertical_accuracy": 0,
  "elevation_method": "agrimet_map",
  "tz_offset": "",
  "active_flag": "",
  "type": "agrimet",
  "responsibility": "pnro",
  "agency_region": "PN",
  "siteid": "slwi",
  "elevation": "712.3176"
}, {
  "description": "DRI - Smith Valley, Nevada Weather Station",
  "state": "NV",
  "latitude": "38.751389",
  "longitude": "-119.335556",
  "timezone": "US\/Pacific",
  "install": "8\/10\/2010",
  "horizontal_datum": "",
  "vertical_datum": "m",
  "vertical_accuracy": 0,
  "elevation_method": "agrimet_map",
  "tz_offset": "",
  "active_flag": "",
  "type": "agrimet",
  "responsibility": "dri",
  "agency_region": "PN",
  "siteid": "smvn",
  "elevation": "1488.948"
}, {
  "description": "DRI - Snake Valley, Nevada Weather Station",
  "state": "NV",
  "latitude": "39.021111",
  "longitude": "-114.089722",
  "timezone": "US\/Pacific",
  "install": "8\/10\/2010",
  "horizontal_datum": "",
  "vertical_datum": "m",
  "vertical_accuracy": 0,
  "elevation_method": "agrimet_map",
  "tz_offset": "",
  "active_flag": "",
  "type": "agrimet",
  "responsibility": "dri",
  "agency_region": "PN",
  "siteid": "snkn",
  "elevation": "1578.864"
}, {
  "description": "UCC - Snowville South, Utah Weather Station",
  "state": "UT",
  "latitude": "41.86625",
  "longitude": "-112.72465",
  "timezone": "US\/Mountain",
  "install": "",
  "horizontal_datum": "",
  "vertical_datum": "m",
  "vertical_accuracy": 0,
  "elevation_method": "agrimet_map",
  "tz_offset": "",
  "active_flag": "",
  "type": "agrimet",
  "responsibility": "ucc",
  "agency_region": "PN",
  "siteid": "snsu",
  "elevation": "1466.6976"
}, {
  "description": "UCC - Snowville (West), Utah Weather Station",
  "state": "UT",
  "latitude": "41.9838166666667",
  "longitude": "-112.911983333333",
  "timezone": "US\/Mountain",
  "install": "",
  "horizontal_datum": "",
  "vertical_datum": "m",
  "vertical_accuracy": 0,
  "elevation_method": "agrimet_map",
  "tz_offset": "",
  "active_flag": "",
  "type": "agrimet",
  "responsibility": "ucc",
  "agency_region": "PN",
  "siteid": "snwu",
  "elevation": "1354.2264"
}, {
  "description": "DRI - Truckee Meadows, Nevada Weather Station",
  "state": "NV",
  "latitude": "39.503056",
  "longitude": "-119.737778",
  "timezone": "US\/Pacific",
  "install": "5\/10\/2010",
  "horizontal_datum": "",
  "vertical_datum": "m",
  "vertical_accuracy": 0,
  "elevation_method": "agrimet_map",
  "tz_offset": "",
  "active_flag": "",
  "type": "agrimet",
  "responsibility": "dri",
  "agency_region": "PN",
  "siteid": "span",
  "elevation": "1338.072"
}, {
  "description": "UCC - Spanish Fork, Utah Weather Station",
  "state": "UT",
  "latitude": "40.0672",
  "longitude": "-111.629116666667",
  "timezone": "US\/Mountain",
  "install": "",
  "horizontal_datum": "",
  "vertical_datum": "m",
  "vertical_accuracy": 0,
  "elevation_method": "agrimet_map",
  "tz_offset": "",
  "active_flag": "",
  "type": "agrimet",
  "responsibility": "ucc",
  "agency_region": "PN",
  "siteid": "spfu",
  "elevation": "1438.9608"
}, {
  "description": "Spirit Lake, Washington Weather Station",
  "state": "ID",
  "latitude": "47.987552",
  "longitude": "-116.884978",
  "timezone": "US\/Pacific",
  "install": "11\/19\/2014",
  "horizontal_datum": "",
  "vertical_datum": "m",
  "vertical_accuracy": 0,
  "elevation_method": "agrimet_map",
  "tz_offset": "",
  "active_flag": "",
  "type": "agrimet",
  "responsibility": "pnro",
  "agency_region": "PN",
  "siteid": "spli",
  "elevation": "756"
}, {
  "description": "San Pete Valley, Utah AgriMet Weather Station",
  "state": "UT",
  "latitude": "39.485745",
  "longitude": "-111.537214",
  "timezone": "US\/Mountain",
  "install": "3\/16\/2015",
  "horizontal_datum": "",
  "vertical_datum": "m",
  "vertical_accuracy": 0,
  "elevation_method": "agrimet_map",
  "tz_offset": "",
  "active_flag": "",
  "type": "agrimet",
  "responsibility": "pnro",
  "agency_region": "PN",
  "siteid": "spvu",
  "elevation": "1711"
}, {
  "description": "DRI - Sand Spring Valley, Nevada Weather Station",
  "state": "NV",
  "latitude": "37.646667",
  "longitude": "-115.7975",
  "timezone": "US\/Pacific",
  "install": "12\/10\/2010",
  "horizontal_datum": "",
  "vertical_datum": "m",
  "vertical_accuracy": 0,
  "elevation_method": "agrimet_map",
  "tz_offset": "",
  "active_flag": "",
  "type": "agrimet",
  "responsibility": "dri",
  "agency_region": "PN",
  "siteid": "ssvn",
  "elevation": "1466.088"
}, {
  "description": "DRI - Steptoe Valley North, Nevada Weather Station",
  "state": "NV",
  "latitude": "40.084167",
  "longitude": "-114.651389",
  "timezone": "US\/Pacific",
  "install": "3\/11\/2011",
  "horizontal_datum": "",
  "vertical_datum": "m",
  "vertical_accuracy": 0,
  "elevation_method": "agrimet_map",
  "tz_offset": "",
  "active_flag": "",
  "type": "agrimet",
  "responsibility": "dri",
  "agency_region": "PN",
  "siteid": "stvn",
  "elevation": "1784.604"
}, {
  "description": "INL - Sugar City, Idaho Weather Station",
  "state": "ID",
  "latitude": "43.896583",
  "longitude": "-111.737617",
  "timezone": "US\/Mountain",
  "install": "",
  "horizontal_datum": "",
  "vertical_datum": "m",
  "vertical_accuracy": 0,
  "elevation_method": "agrimet_map",
  "tz_offset": "",
  "active_flag": "",
  "type": "agrimet",
  "responsibility": "noaa",
  "agency_region": "PN",
  "siteid": "sugi",
  "elevation": "1491.996"
}, {
  "description": "Sutherland, Utah AgriMet Weather Station",
  "state": "UT",
  "latitude": "39.45071",
  "longitude": "-112.63823",
  "timezone": "US\/Mountain",
  "install": "",
  "horizontal_datum": "",
  "vertical_datum": "m",
  "vertical_accuracy": 0,
  "elevation_method": "agrimet_map",
  "tz_offset": "",
  "active_flag": "",
  "type": "agrimet",
  "responsibility": "ucc",
  "agency_region": "PN",
  "siteid": "sutu",
  "elevation": "1451"
}, {
  "description": "DRI - Steptoe Valley WMA, Nevada Weather Station",
  "state": "NV",
  "latitude": "39.195556",
  "longitude": "-114.810278",
  "timezone": "US\/Pacific",
  "install": "3\/11\/2011",
  "horizontal_datum": "",
  "vertical_datum": "m",
  "vertical_accuracy": 0,
  "elevation_method": "agrimet_map",
  "tz_offset": "",
  "active_flag": "",
  "type": "agrimet",
  "responsibility": "dri",
  "agency_region": "PN",
  "siteid": "swmn",
  "elevation": "1965.96"
}, {
  "description": "INL - Taber, Idaho Weather Station",
  "state": "ID",
  "latitude": "43.318683",
  "longitude": "-112.6918",
  "timezone": "US\/Mountain",
  "install": "",
  "horizontal_datum": "",
  "vertical_datum": "m",
  "vertical_accuracy": 0,
  "elevation_method": "agrimet_map",
  "tz_offset": "",
  "active_flag": "",
  "type": "agrimet",
  "responsibility": "noaa",
  "agency_region": "PN",
  "siteid": "tabi",
  "elevation": "1441.704"
}, {
  "description": "INL - Terreton, Idaho Weather Station",
  "state": "ID",
  "latitude": "43.841683",
  "longitude": "-112.41825",
  "timezone": "US\/Mountain",
  "install": "",
  "horizontal_datum": "",
  "vertical_datum": "m",
  "vertical_accuracy": 0,
  "elevation_method": "agrimet_map",
  "tz_offset": "",
  "active_flag": "",
  "type": "agrimet",
  "responsibility": "noaa",
  "agency_region": "PN",
  "siteid": "teri",
  "elevation": "1460.6016"
}, {
  "description": "Twin Falls Fairgrounds, Filer Idaho",
  "state": "ID",
  "latitude": "42.568782",
  "longitude": "-114.601548",
  "timezone": "US\/Mountain",
  "install": "8\/21\/2013",
  "horizontal_datum": "",
  "vertical_datum": "m",
  "vertical_accuracy": 0,
  "elevation_method": "agrimet_map",
  "tz_offset": "",
  "active_flag": "",
  "type": "agrimet",
  "responsibility": "pnro",
  "agency_region": "PN",
  "siteid": "tfgi",
  "elevation": "1147"
}, {
  "description": "UCC - Tremonton, Utah Weather Station",
  "state": "UT",
  "latitude": "41.7229333333333",
  "longitude": "-112.15375",
  "timezone": "US\/Mountain",
  "install": "",
  "horizontal_datum": "",
  "vertical_datum": "m",
  "vertical_accuracy": 0,
  "elevation_method": "agrimet_map",
  "tz_offset": "",
  "active_flag": "",
  "type": "agrimet",
  "responsibility": "ucc",
  "agency_region": "PN",
  "siteid": "trmu",
  "elevation": "1320.0888"
}, {
  "description": "Tropic, Utah AgriMet Weather Station",
  "state": "UT",
  "latitude": "37.627466",
  "longitude": "-112.046416",
  "timezone": "US\/Mountain",
  "install": "3\/12\/2015",
  "horizontal_datum": "",
  "vertical_datum": "m",
  "vertical_accuracy": 0,
  "elevation_method": "agrimet_map",
  "tz_offset": "",
  "active_flag": "",
  "type": "agrimet",
  "responsibility": "pnro",
  "agency_region": "PN",
  "siteid": "trpu",
  "elevation": "1893"
}, {
  "description": "Terraton, Idaho AgriMet Weather Station",
  "state": "ID",
  "latitude": "43.8704",
  "longitude": "-112.26394",
  "timezone": "US\/Mountain",
  "install": "3\/13\/2014",
  "horizontal_datum": "",
  "vertical_datum": "m",
  "vertical_accuracy": 0,
  "elevation_method": "agrimet_map",
  "tz_offset": "",
  "active_flag": "",
  "type": "agrimet",
  "responsibility": "pnro",
  "agency_region": "PN",
  "siteid": "trti",
  "elevation": "1478"
}, {
  "description": "Twin Falls (Kimberly) Idaho AgriMet Weather Station 7E",
  "state": "ID",
  "latitude": "42.54611",
  "longitude": "-114.34527",
  "timezone": "US\/Mountain",
  "install": "3\/1\/1990",
  "horizontal_datum": "",
  "vertical_datum": "m",
  "vertical_accuracy": 0,
  "elevation_method": "agrimet_map",
  "tz_offset": "",
  "active_flag": "",
  "type": "agrimet",
  "responsibility": "pnro",
  "agency_region": "PN",
  "siteid": "twfi",
  "elevation": "1194.82"
}, {
  "description": "UCC - Venice, Utah Weather Station",
  "state": "UT",
  "latitude": "38.8235",
  "longitude": "-112.000367",
  "timezone": "US\/Mountain",
  "install": "",
  "horizontal_datum": "",
  "vertical_datum": "m",
  "vertical_accuracy": 0,
  "elevation_method": "agrimet_map",
  "tz_offset": "",
  "active_flag": "",
  "type": "agrimet",
  "responsibility": "ucc",
  "agency_region": "PN",
  "siteid": "vecu",
  "elevation": "1598.3712"
}, {
  "description": "Worden, Oregon AgriMet Weather Station",
  "state": "OR",
  "latitude": "42.0125",
  "longitude": "-121.7875",
  "timezone": "US\/Pacific",
  "install": "4\/19\/2000",
  "horizontal_datum": "",
  "vertical_datum": "m",
  "vertical_accuracy": 0,
  "elevation_method": "agrimet_map",
  "tz_offset": "",
  "active_flag": "",
  "type": "agrimet",
  "responsibility": "pnro",
  "agency_region": "PN",
  "siteid": "wrdo",
  "elevation": "1243.58"
}, {
  "description": "BIG SANDY RESERVOIR",
  "state": "WY",
  "latitude": "42.1457",
  "longitude": "-109.2543",
  "timezone": "",
  "install": "",
  "horizontal_datum": "",
  "vertical_datum": "",
  "vertical_accuracy": 0,
  "elevation_method": "",
  "tz_offset": "",
  "active_flag": "",
  "type": "reservoir",
  "responsibility": "",
  "agency_region": "UC",
  "siteid": "BIGSANDYRESERVOIR",
  "elevation": "6757.50"
}, {
  "description": "BLUE MESA RESERVOIR",
  "state": "CO",
  "latitude": "38.2714",
  "longitude": "-107.2050",
  "timezone": "",
  "install": "",
  "horizontal_datum": "",
  "vertical_datum": "",
  "vertical_accuracy": 0,
  "elevation_method": "",
  "tz_offset": "",
  "active_flag": "",
  "type": "reservoir",
  "responsibility": "",
  "agency_region": "UC",
  "siteid": "BLUEMESARESERVOIR",
  "elevation": "7519.40"
}, {
  "description": "CABALLO RESERVOIR",
  "state": "NM",
  "latitude": "325305",
  "longitude": "-1071731",
  "timezone": "",
  "install": "",
  "horizontal_datum": "",
  "vertical_datum": "",
  "vertical_accuracy": 0,
  "elevation_method": "",
  "tz_offset": "",
  "active_flag": "",
  "type": "reservoir",
  "responsibility": "",
  "agency_region": "UC",
  "siteid": "CABALLORESERVOIR",
  "elevation": "4172.44"
}, {
  "description": "CAUSEY RESERVOIR",
  "state": "UT",
  "latitude": "41.1730",
  "longitude": "-111.3500",
  "timezone": "",
  "install": "",
  "horizontal_datum": "",
  "vertical_datum": "",
  "vertical_accuracy": 0,
  "elevation_method": "",
  "tz_offset": "",
  "active_flag": "",
  "type": "reservoir",
  "responsibility": "",
  "agency_region": "UC",
  "siteid": "CAUSEYRESERVOIR",
  "elevation": "5692"
}, {
  "description": "CRYSTAL RESERVOIR",
  "state": "CO",
  "latitude": "38.3038",
  "longitude": "-107.3725",
  "timezone": "",
  "install": "",
  "horizontal_datum": "",
  "vertical_datum": "",
  "vertical_accuracy": 0,
  "elevation_method": "",
  "tz_offset": "",
  "active_flag": "",
  "type": "reservoir",
  "responsibility": "",
  "agency_region": "UC",
  "siteid": "CRYSTALRESERVOIR",
  "elevation": "6755"
}, {
  "description": "CURRANT CREEK RESERVOIR, UTAH",
  "state": "UT",
  "latitude": "40.1201",
  "longitude": "-110.5425",
  "timezone": "",
  "install": "",
  "horizontal_datum": "",
  "vertical_datum": "",
  "vertical_accuracy": 0,
  "elevation_method": "",
  "tz_offset": "",
  "active_flag": "",
  "type": "reservoir",
  "responsibility": "",
  "agency_region": "UC",
  "siteid": "CURRANTCREEKRESERVOIRUTAH",
  "elevation": "7678"
}, {
  "description": "DEER CREEK RESERVOIR, UTAH",
  "state": "UT",
  "latitude": "40.2400",
  "longitude": "-111.3200",
  "timezone": "",
  "install": "",
  "horizontal_datum": "",
  "vertical_datum": "",
  "vertical_accuracy": 0,
  "elevation_method": "",
  "tz_offset": "",
  "active_flag": "",
  "type": "reservoir",
  "responsibility": "",
  "agency_region": "UC",
  "siteid": "DEERCREEKRESERVOIRUTAH",
  "elevation": "5417"
}, {
  "description": "EAST CANYON RESERVOIR NEAR MORGAN",
  "state": "UT",
  "latitude": "40.5514",
  "longitude": "-111.3600",
  "timezone": "",
  "install": "",
  "horizontal_datum": "",
  "vertical_datum": "",
  "vertical_accuracy": 0,
  "elevation_method": "",
  "tz_offset": "",
  "active_flag": "",
  "type": "reservoir",
  "responsibility": "",
  "agency_region": "UC",
  "siteid": "EASTCANYONRESERVOIRNEARMORGAN",
  "elevation": "5903"
}, {
  "description": "ECHO RESERVOIR",
  "state": "UT",
  "latitude": "40.5750",
  "longitude": "-111.2555",
  "timezone": "",
  "install": "",
  "horizontal_datum": "",
  "vertical_datum": "",
  "vertical_accuracy": 0,
  "elevation_method": "",
  "tz_offset": "",
  "active_flag": "",
  "type": "reservoir",
  "responsibility": "",
  "agency_region": "UC",
  "siteid": "ECHORESERVOIR",
  "elevation": "5560"
}, {
  "description": "EDEN RESERVOIR",
  "state": "WY",
  "latitude": "42.4300",
  "longitude": "-109.2200",
  "timezone": "",
  "install": "",
  "horizontal_datum": "",
  "vertical_datum": "",
  "vertical_accuracy": 0,
  "elevation_method": "",
  "tz_offset": "",
  "active_flag": "",
  "type": "reservoir",
  "responsibility": "",
  "agency_region": "UC",
  "siteid": "EDENRESERVOIR",
  "elevation": "6715.20"
}, {
  "description": "ELEPHANT BUTTE RESERVOIR",
  "state": "NM",
  "latitude": "0330854",
  "longitude": "-1071222",
  "timezone": "",
  "install": "",
  "horizontal_datum": "",
  "vertical_datum": "",
  "vertical_accuracy": 0,
  "elevation_method": "",
  "tz_offset": "",
  "active_flag": "",
  "type": "reservoir",
  "responsibility": "",
  "agency_region": "UC",
  "siteid": "ELEPHANTBUTTERESERVOIR",
  "elevation": "4241.09"
}, {
  "description": "FLAMING GORGE RESERVOIR",
  "state": "WY",
  "latitude": "40.5500",
  "longitude": "-109.2500",
  "timezone": "",
  "install": "",
  "horizontal_datum": "",
  "vertical_datum": "",
  "vertical_accuracy": 0,
  "elevation_method": "",
  "tz_offset": "",
  "active_flag": "",
  "type": "reservoir",
  "responsibility": "",
  "agency_region": "UC",
  "siteid": "FLAMINGGORGERESERVOIR",
  "elevation": "6040"
},